Municipio;Cod_Municipio;Provincia;Cod_Provincia;Cod_INE;Población;Mancomunidades;Entidades_Locales_Menores;Comarca;Longitud;Latitud;CoordenadaX;CoordenadaY;Posición;presencia_de_comercio;Tiene_Hospital;Transplantes;Dificultad_Acceso
RUBLACEDO DE ABAJO;327;BURGOS;9;9327;33;OÑA-BUREBA-CADERECHAS-VALDIVIELSO (OBURCAVAL);RUBLACEDO DE ABAJO,RUBLACEDO DE ARRIBA;;-3.50256;42.55491;458742.7;4711512.63;42.55491, -3.50256;0;0;0;0.14
SALAS DE LOS INFANTES;330;BURGOS;9;9330;1984;AGUAS DE LARA,ALFOZ DE LARA;HOYUELOS DE LA SIERRA;;-3.282137;42.022314;476642.25;4652292.18;42.022314, -3.282137;0;0;0;0.19
SAN MILLÁN DE LARA;340;BURGOS;9;9340;61;ALFOZ DE LARA;;;-3.344955;42.135626;471492.39;4664892.4;42.135626, -3.344955;0;0;0;0.16
SAN VICENTE DEL VALLE;360;BURGOS;9;9360;28;LA RIOJILLA BURGALESA,SIERRA DE LA DEMANDA;ESPINOSA DEL MONTE,SAN CLEMENTE DEL VALLE;;-3.161841;42.336869;486667.66;4687192.22;42.336869, -3.161841;0;0;0;0.18
SANTA INÉS;348;BURGOS;9;9348;155;RIBERA DEL ARLANZA Y DEL MONTE;;;-3.702984;42.040327;441817.17;4654492.75;42.040327, -3.702984;0;0;0;0.15
SARGENTES DE LA LORA;361;BURGOS;9;9361;133;PARAMOS Y VALLES;AYOLUENGO,SANTA COLOMA DEL RUDRÓN,VALDEAJOS DE LA LORA;;-3.874035;42.769086;428492.43;4735543.12;42.769086, -3.874035;0;0;0;0.19
SASAMÓN;363;BURGOS;9;9363;912;ODRA-PISUERGA;CASTRILLO DE MURCIA,CITORES DEL PÁRAMO,OLMILLOS DE SASAMÓN,VILLANDIEGO,VILLASIDRO,YUDEGO;;-4.044174;42.418242;414092.16;4696742.94;42.418242, -4.044174;0;0;0;0.14
SORDILLOS;368;BURGOS;9;9368;22;PEÑA AMAYA;MAHALLOS;;-4.107552;42.462676;408942.15;4701742.85;42.462676, -4.107552;0;0;0;0.16
SOTILLO DE LA RIBERA;369;BURGOS;9;9369;470;RIBERA DEL DUERO-COMARCA DE ROA;PINILLOS DE ESGUEVA;;-3.824946;41.776969;431441.62;4625342.62;41.776969, -3.824946;0;0;0;0.23
SOTRAGERO;372;BURGOS;9;9372;301;TIERRAS DEL CID;;;-3.713469;42.409518;441292.41;4695492.71;42.409518, -3.713469;0;0;0;0.09
SUSINOS DEL PÁRAMO;374;BURGOS;9;9374;118;PEÑA AMAYA;;;-3.926748;42.471035;423817.29;4702492.86;42.471035, -3.926748;0;0;0;0.13
TAMARÓN;375;BURGOS;9;9375;55;CAMPOS DE MUÑÓ,PUEBLOS DE LA VECINDAD DE BURGOS;;;-3.990838;42.272819;418292.18;4680543.01;42.272819, -3.990838;0;0;0;0.13
TOBAR;382;BURGOS;9;9382;27;PEÑA AMAYA;;;-3.93941;42.48399;422792.29;4703942.87;42.48399, -3.93941;0;0;0;0.13
TORRECILLA DEL MONTE;386;BURGOS;9;9386;79;RIBERA DEL ARLANZA Y DEL MONTE;;;-3.694219;42.09532;442592.2;4660592.77;42.09532, -3.694219;0;0;0;0.14
TORREGALINDO;387;BURGOS;9;9387;123;VALLE DEL RIO RIAZA;;;-3.753342;41.582486;437203.58;4603695.76;41.582486, -3.753342;0;0;0;0.28
TORRESANDINO;390;BURGOS;9;9390;574;RIBERA DEL DUERO-COMARCA DE ROA;;;-3.909639;41.829444;424464.71;4631239.74;41.829444, -3.909639;0;0;0;0.22
TUBILLA DEL LAGO;396;BURGOS;9;9396;171;RIO ARANDILLA;;;-3.586698;41.801115;451259.93;4627861.01;41.801115, -3.586698;0;0;0;0.22
ÚRBEL DEL CASTILLO;398;BURGOS;9;9398;58;PEÑA AMAYA;LA NUEZ DE ARRIBA,QUINTANA DEL PINO,ÚRBEL DEL CASTILLO;;-3.844807;42.619362;430717.41;4718892.83;42.619362, -3.844807;0;0;0;0.15
VALDEANDE;403;BURGOS;9;9403;98;LA YECLA;;;-3.528794;41.832749;456092.01;4631341.9;41.832749, -3.528794;0;0;0;0.22
VALDEZATE;405;BURGOS;9;9405;121;RIBERA DEL DUERO-COMARCA DE ROA;;;-3.931026;41.602553;422416.32;4606068.23;41.602553, -3.931026;0;0;0;0.28
VALLARTA DE BUREBA;408;BURGOS;9;9408;42;DESFILADERO Y BUREBA;;;-3.203619;42.58807;483292.91;4715092.46;42.58807, -3.203619;0;0;0;0.19
VALLE DE LAS NAVAS;904;BURGOS;9;9904;543;TIERRAS DEL CID;CELADA DE LA TORRE,MELGOSA DE BURGOS,RIOCEREZO,ROBREDO TEMIÑO,TEMIÑO,TOBES Y RAHEDO;;-3.637037;42.452602;447617.5;4700226.64;42.452602, -3.637037;0;0;0;0.1
VALLE DE MANZANEDO;409;BURGOS;9;9409;115;;ARREBA,MANZANEDO,POBLACIÓN DE ARREBA;;-3.691368;42.897273;443553.83;4749639.03;42.897273, -3.691368;0;0;0;0.85
VALLE DE SEDANO;905;BURGOS;9;9905;409;AGUAS LAS CALZADAS,PARAMOS Y VALLES;CUBILLO DEL BUTRÓN,ESCALADA,GREDILLA DE SEDANO,MORADILLO DE SEDANO,NIDÁGUILA,ORBANEJA DEL CASTILLO,PESQUERA DE EBRO,QUINTANALOMA,QUINTANILLA-ESCALADA,TERRADILLOS DE SEDANO,VALDELATEJA;;-3.749952;42.716832;438592.54;4729642.87;42.716832, -3.749952;0;0;0;0.18
VALLE DE TOBALINA;412;BURGOS;9;9412;863;COMARCA DEL EBRO-NELA;BARCINA DEL BARCO,BASCUÑUELOS,CUEZVA,GABANES,GAROÑA,HERRÁN,LA ORDEN DE TOBALINA,LA PRADA,LA REVILLA DE HERRÁN,LAS VIADAS,LECIÑANA DE TOBALINA,LOMANA,LOZARES DE TOBALINA,MIJARALENGUA,MONTEJO DE CEBAS,MONTEJO DE SAN MIGUEL,ORBAÑANOS,PANGUSIÓN,PEDROSA DE TOBALINA,QUINTANA MARÍA,QUINTANA MARTÍN GALÍNDEZ,RANEDO-PROMEDIANO,RUFRANCOS,SAN MARTÍN DE DON,SANTA MARÍA DE GAROÑA,SANTOCILDES,VALUJERA,VILLAESCUSA DE TOBALINA;;-3.271532;42.791907;477793.32;4737742.63;42.791907, -3.271532;0;0;0;0.22
VALLE DE VALDELAGUNA;414;BURGOS;9;9414;191;ALFOZ DE LARA;HUERTA DE ABAJO,QUINTANILLA DE URRILLA,TOLBAÑOS DE ABAJO,TOLBAÑOS DE ARRIBA,VALLEJIMENO;;-3.147067;42.115335;487842.27;4662592.29;42.115335, -3.147067;0;0;0;0.2
VALLE DE VALDELUCIO;415;BURGOS;9;9415;330;PEÑA AMAYA;CORRALEJO DE VALDELUCIO,ESCUDEROS DE VALDELUCIO,FUENCALIENTE DE VALDELUCIO,LA RIBA DE VALDELUCIO,LLANILLO DE VALDELUCIO,PAÚL DE VALDELUCIO,PEDROSA DE VALDELUCIO,QUINTANAS DE VALDELUCIO,RENEDO DE LA ESCALERA,SOLANAS DE VALDELUCIO,VILLAESCOBEDO;;-4.120628;42.717861;408242.15;4730093.31;42.717861, -4.120628;0;0;0;0.21
VALLE DE ZAMANZAS;416;BURGOS;9;9416;45;AGUAS LAS CALZADAS;AYLANES,GALLEJONES;;-3.756044;42.849353;438225.65;4744363.09;42.849353, -3.756044;0;0;0;0.84
VALMALA;407;BURGOS;9;9407;26;SIERRA DE LA DEMANDA;;;-3.25488;42.30518;478992.61;4683692.31;42.30518, -3.25488;0;0;0;0.16
VILEÑA;423;BURGOS;9;9423;27;;;;-3.322169;42.621598;473579.93;4718845.6;42.621598, -3.322169;0;0;0;0.18
VILLADIEGO;427;BURGOS;9;9427;1455;PEÑA AMAYA;ACEDILLO,ARENILLAS DE VILLADIEGO,BARRIOS DE VILLADIEGO,BOADA DE VILLADIEGO,BRULLÉS,BUSTILLO DEL PÁRAMO,CASTROMORCA,COCULINA,FUENCIVIL,HORMAZUELA,LOS VALCÁRCERES,MELGOSA DE VILLADIEGO,OLMOS DE LA PICAZA,PALAZUELOS DE VILLADIEGO,QUINTANILLA DE LA PRESA,RIOPARAÍSO,SANDOVAL DE LA REINA,TABLADA DE VILLADIEGO,TAPIA,VILLAHERNANDO,VILLAHIZÁN DE TREVIÑO,VILLALBILLA DE VILLADIEGO,VILLALIBADO,VILLANOÑO,VILLANUEVA DE ODRA,VILLANUEVA DE PUERTA,VILLAUTE,VILLAVEDÓN,VILLUSTO;;-4.009884;42.515812;417042.28;4707542.89;42.515812, -4.009884;0;0;0;0.15
VILLAESCUSA DE ROA;428;BURGOS;9;9428;90;RIBERA DEL DUERO-COMARCA DE ROA;;;-4.017407;41.727242;415381.38;4619993.05;41.727242, -4.017407;0;0;0;0.25
VILLAHOZ;437;BURGOS;9;9437;287;CAMPOS DE MUÑÓ,RIBERA DEL ARLANZA Y DEL MONTE;;;-3.914042;42.077121;424392.35;4658743.12;42.077121, -3.914042;0;0;0;0.16
VILLALBA DE DUERO;438;BURGOS;9;9438;706;RIBERA DEL DUERO-COMARCA DE ROA;;;-3.743865;41.682696;438089.61;4614814.51;41.682696, -3.743865;0;0;0;0.25
VILLAMAYOR DE TREVIÑO;444;BURGOS;9;9444;56;PEÑA AMAYA;;;-4.119665;42.459856;407942.13;4701442.85;42.459856, -4.119665;0;0;0;0.16
VILLANUEVA DE CARAZO;450;BURGOS;9;9450;27;;;;-3.324519;41.983698;473117.22;4648017.11;41.983698, -3.324519;0;0;0;0.2
VILLANUEVA DE TEBA;454;BURGOS;9;9454;42;DESFILADERO Y BUREBA;;;-3.16417;42.649823;486543.04;4721942.47;42.649823, -3.16417;0;0;0;0.21
VILLARCAYO DE MERINDAD DE CASTILLA LA VIEJA;903;BURGOS;9;9903;4047;;ANDINO,BARRIOSUSO,BARRUELO,BISJUECES,BOCOS,CAMPO,CASILLAS,CÉSPEDES,CIGÜENZA,ESCAÑO,FRESNEDO,HORNA,INCINILLAS,LA ALDEA,LA QUINTANA DE RUEDA,MOZARES,QUINTANILLA DE LOS ADRIANOS,SALAZAR,SANTA CRUZ DE ANDINO,TORME,TUBILLA,VILLACANES,VILLACOMPARADA DE RUEDA,VILLALAÍN,VILLANUEVA LA BLANCA,VILLANUEVA LA LASTRA;;-3.57246;42.938486;453293.18;4754142.79;42.938486, -3.57246;0;0;0;0.87
VILLAYERNO MORQUILLAS;471;BURGOS;9;9471;205;TIERRAS DEL CID;;;-3.639004;42.39598;447408.46;4693940.66;42.39598, -3.639004;0;0;0;0.09
VILLAZOPEQUE;472;BURGOS;9;9472;52;CAMPOS DE MUÑÓ,PUEBLOS DE LA VECINDAD DE BURGOS;;;-4.017545;42.199186;415992.23;4672393.13;42.199186, -4.017545;0;0;0;0.15
VILLEGAS;473;BURGOS;9;9473;79;PEÑA AMAYA;;;-4.01703;42.468468;416392.23;4702292.91;42.468468, -4.01703;0;0;0;0.14
ZARZOSA DE RÍO PISUERGA;482;BURGOS;9;9482;31;BOEDO-OJEDA;;;-4.26807;42.536209;395867.01;4710092.81;42.536209, -4.26807;0;0;0;0.2
ZAZUAR;483;BURGOS;9;9483;209;RIO ARANDILLA;;;-3.555287;41.695618;453793.89;4616130.86;41.695618, -3.555287;0;0;0;0.25
ARDÓN;6;LEÓN;24;24006;550;ESLA-BERNESGA;ARDÓN,BENAZOLVE,CILLANUEVA,FRESNELLINO DEL MONTE,SAN CIBRIÁN DE ARDÓN,VILLALOBAR;;-5.558092;42.435878;289590.48;4701343.63;42.435878, -5.558092;0;0;0;0.12
BALBOA;9;LEÓN;24;24009;263;;BALBOA,CANTEJEIRA Y PUMARÍN,CASTAÑEIRAS Y FUENTE DE OLIVA,CHANDEVILLAR Y RUIDEFERROS,VALVERDE Y VILLARMARÍN,VILLAFEILE, LAMAGRANDE Y QUINTELA,VILLANUEVA Y PARAGÍS,VILLARIÑOS Y CASTAÑOSO;COMARCA DE EL BIERZO;-6.920859;42.706199;178878.45;4735647.75;42.706199, -6.920859;0;0;0;0.98
BEMBIBRE;14;LEÓN;24;24014;8158;CAPTACIÓN DE AGUAS BÁRCENA- BOEZA,RIBERA DEL BOEZA;ARLANZA,BEMBIBRE,LABANIEGO,LOSADA,RODANILLO,SAN ESTEBAN DEL TORAL,SAN ROMÁN DE BEMBIBRE,SANTIBÁÑEZ DEL TORAL,VIÑALES;COMARCA DE EL BIERZO;-6.416706;42.615067;219763.73;4723730.99;42.615067, -6.416706;0;0;0;0.87
BENAVIDES;15;LEÓN;24;24015;2342;DEL ÓRBIGO,DEPURACIÓN DEL ALTO ÓRBIGO;ANTOÑÁN DEL VALLE,BENAVIDES DE ÓRBIGO,GUALTARES DE ÓRBIGO,QUINTANILLA DEL MONTE,QUINTANILLA DEL VALLE,VEGA DE ANTOÑÁN;;-5.896421;42.501845;262010.29;4709563.84;42.501845, -5.896421;0;0;0;0.14
BERCIANOS DEL REAL CAMINO;18;LEÓN;24;24018;186;ZONA DE SAHAGUN;;;-5.14673;42.38714;323290.82;4694993.66;42.38714, -5.14673;0;0;0;0.18
CABAÑAS RARAS;27;LEÓN;24;24027;1302;AGUA DEL BIERZO,BIERZO CENTRAL;CABAÑAS RARAS,CORTIGUERA;COMARCA DE EL BIERZO;-6.636463;42.619909;201760.58;4725020.88;42.619909, -6.636463;0;0;0;0.92
CABREROS DEL RÍO;28;LEÓN;24;24028;408;SUR DE LEÓN (MANSURLE);CABREROS DEL RÍO,JABARES DE LOS OTEROS;;-5.544824;42.402403;290570.43;4697593.58;42.402403, -5.544824;0;0;0;0.13
CAMPONARAYA;34;LEÓN;24;24034;4104;AGUA DEL BIERZO,BIERZO CENTRAL,MUNICIPAL PARA EL TRATAMIENTO DE LAS AGUAS RESIDUALES DEL BA;HERVEDEDO,LA VÁLGOMA,MAGAZ DE ABAJO,NARAYOLA;COMARCA DE EL BIERZO;-6.671347;42.580365;198708.53;4720752.83;42.580365, -6.671347;0;0;0;0.93
CEA;51;LEÓN;24;24051;378;ZONA DE SAHAGUN;BUSTILLO DE CEA,CEA,SAHELICES DEL RÍO,SAN PEDRO DE VALDERADUEY;;-5.01311;42.463411;334491.06;4703193.68;42.463411, -5.01311;0;0;0;0.19
CEBRONES DEL RÍO;53;LEÓN;24;24053;435;COMARCA DE LA BAÑEZA;CEBRONES DEL RÍO,SAN JUAN DE TORRES,SAN MARTÍN DE TORRES;;-5.825095;42.257875;266970.16;4682273.42;42.257875, -5.825095;0;0;0;0.18
CHOZAS DE ABAJO;65;LEÓN;24;24065;2678;LEÓN Y ALFOZ;ANTIMIO DE ARRIBA,ARDONCINO,BANUNCIAS,CEMBRANOS,CHOZAS DE ABAJO,CHOZAS DE ARRIBA,MEIZARA,MOZÓNDIGA,VILLAR DE MAZARIFE;;-5.687187;42.506675;279220.52;4709533.76;42.506675, -5.687187;0;0;0;0.11
CIMANES DEL TEJAR;55;LEÓN;24;24055;738;ALTO ÓRBIGO,DEPURACIÓN DEL ALTO ÓRBIGO;ALCOBA DE LA RIBERA,AZADÓN,CIMANES DEL TEJAR,SECAREJO,VELILLA DE LA REINA,VILLARROQUEL;;-5.806214;42.618004;269850.49;4722214.0;42.618004, -5.806214;0;0;0;0.12
CUADROS;61;LEÓN;24;24061;2090;LEÓN Y ALFOZ;CABANILLAS,CAMPO Y SANTIBÁÑEZ,CASCANTES DE ALBA,CUADROS,LA SECA DE ALBA,LORENZANA,VALSEMANA;;-5.638963;42.71095;283890.77;4732094.13;42.71095, -5.638963;0;0;0;0.1
CUBILLAS DE LOS OTEROS;62;LEÓN;24;24062;137;SUR DE LEÓN (MANSURLE);GIGOSOS DE LOS OTEROS;;-5.507514;42.371707;293540.41;4694093.52;42.371707, -5.507514;0;0;0;0.13
CUBILLAS DE RUEDA;63;LEÓN;24;24063;385;RIBERA DEL ESLA;CUBILLAS DE RUEDA,HERREROS DE RUEDA,LLAMAS DE RUEDA,PALACIOS DE RUEDA,QUINTANILLA DE RUEDA,SAHECHORES,SAN CIPRIANO DE RUEDA,VEGA DE MONASTERIO,VILLAPADIERNA;;-5.173623;42.655444;321841.24;4724843.98;42.655444, -5.173623;0;0;0;0.15
FABERO;70;LEÓN;24;24070;4061;CÚA,FABERO-VEGA DE ESPINAREDA;BÁRCENA DE LA ABADÍA,FABERO,FONTORIA,LILLO DEL BIERZO,OTERO DE NARAGUANTES,SAN PEDRO DE PARADELA;COMARCA DE EL BIERZO;-6.628094;42.763088;203130.67;4740892.95;42.763088, -6.628094;0;0;0;0.92
FOLGOSO DE LA RIBERA;71;LEÓN;24;24071;982;BIERZO ALTO;BOEZA,EL VALLE,FOLGOSO DE LA RIBERA,LA RIBERA DE FOLGOSO,ROZUELO,TEDEJO,VILLAVICIOSA DE SAN MIGUEL;COMARCA DE EL BIERZO;-6.319423;42.643089;227865.81;4726525.06;42.643089, -6.319423;0;0;0;0.85
GORDONCILLO;78;LEÓN;24;24078;308;SUR DE LEÓN (MANSURLE);;;-5.401977;42.1355;301490.66;4667613.28;42.1355, -5.401977;0;0;0;0.2
GRADEFES;79;LEÓN;24;24079;925;RIBERA DEL ESLA;CAÑIZAL DE RUEDA,CARBAJAL DE RUEDA,CASASOLA DE RUEDA,CIFUENTES DE RUEDA,GARFÍN,GRADEFES,MELLANZOS,NAVA DE LOS CABALLEROS,RUEDA DEL ALMIRANTE,SAN BARTOLOMÉ DE RUEDA,SAN MIGUEL DE ESCALADA,SANTA OLAJA DE ESLONZA,VALDEALCÓN,VALDEALISO,VALDUVIECO,VILLACIDAYO,VILLANÓFAR,VILLARMÚN DE ESLONZA,VILLARRATEL;;-5.226177;42.623816;317441.11;4721443.93;42.623816, -5.226177;0;0;0;0.14
GRAJAL DE CAMPOS;80;LEÓN;24;24080;209;ZONA DE SAHAGUN;;;-5.020685;42.320539;333490.91;4687343.62;42.320539, -5.020685;0;0;0;0.21
HOSPITAL DE ÓRBIGO;82;LEÓN;24;24082;956;DEL ÓRBIGO,DEPURACIÓN DEL ALTO ÓRBIGO;PUENTE DE ÓRBIGO;;-5.882493;42.463565;263010.26;4705273.78;42.463565, -5.882493;0;0;0;0.14
JOARILLA DE LAS MATAS;86;LEÓN;24;24086;245;ZONA DE SAHAGUN;JOARILLA DE LAS MATAS,SAN MIGUEL DE MONTAÑÁN,VALDESPINO VACA;;-5.17853;42.287929;320390.75;4684043.55;42.287929, -5.17853;0;0;0;0.19
LA BAÑEZA;10;LEÓN;24;24010;10023;;SAN MAMÉS DE LA VEGA,SANTIAGO DE LA VALDUERNA;;-5.899119;42.29655;261010.11;4686773.5;42.29655, -5.899119;0;0;0;0.18
LA POLA DE GORDÓN;114;LEÓN;24;24114;2842;ALTO BERNESGA,MONTAÑA CENTRAL;BEBERINO,BUIZA,CABORNERA,CIÑERA,FOLLEDO,GERAS,HUERGAS DE GORDÓN,LA POLA DE GORDÓN,LA VID,LLOMBERA,LOS BARRIOS DE GORDÓN,NOCEDO DE GORDÓN,PARADILLA DE GORDÓN,PEREDILLA,SANTA LUCÍA,VEGA DE GORDÓN,VILLASIMPLIZ;;-5.669558;42.854769;281890.92;4748144.52;42.854769, -5.669558;0;0;0;0.77
LAS OMAÑAS;104;LEÓN;24;24104;259;ALTO ÓRBIGO;LAS OMAÑAS,MATALUENGA,PEDREGAL,SAN MARTÍN DE LA FALAMOSA,SANTIAGO DEL MOLINILLO;;-5.869651;42.682437;264890.44;4729544.14;42.682437, -5.869651;0;0;0;0.14
LOS BARRIOS DE LUNA;12;LEÓN;24;24012;294;OMAÑA-LUNA;IREDE DE LUNA,LOS BARRIOS DE LUNA,MALLO DE LUNA,MORA DE LUNA,PORTILLA DE LUNA,SAGÜERA DE LUNA,VEGA DE CABALLEROS;;-5.861891;42.84541;266140.6;4747621.48;42.84541, -5.861891;0;0;0;0.79
LUCILLO;90;LEÓN;24;24090;356;LA MARAGATERIA;BOISÁN,CHANA DE SOMOZA,FILIEL,LUCILLO,MOLINAFERRERA,PIEDRAS ALBAS,POBLADURA DE LA SIERRA;;-6.303396;42.409487;228167.76;4700530.76;42.409487, -6.303396;0;0;0;0.86
LUYEGO;91;LEÓN;24;24091;554;LA MARAGATERIA;LUYEGO DE SOMOZA,PRIARANZA DE LA VALDUERNA,QUINTANILLA DE SOMOZA,TABUYO DEL MONTE,VILLALIBRE DE SOMOZA,VILLAR DE GOLFER;;-6.236308;42.376635;233549.82;4696669.7;42.376635, -6.236308;0;0;0;0.85
MANSILLA DE LAS MULAS;94;LEÓN;24;24094;1663;;VILLOMAR;;-5.416444;42.498659;301440.63;4707973.72;42.498659, -5.416444;0;0;0;0.11
MANSILLA MAYOR;95;LEÓN;24;24095;324;LEÓN Y ALFOZ,RIBERA DEL ESLA;MANSILLA MAYOR,NOGALES DE MANSILLA,VILLAMOROS DE MANSILLA,VILLAVERDE DE SANDOVAL;;-5.443959;42.508341;299210.64;4709113.73;42.508341, -5.443959;0;0;0;0.11
MARAÑA;96;LEÓN;24;24096;111;MONTAÑA DE RIAÑO;;;-5.175805;43.048919;322791.5;4768544.6;43.048919, -5.175805;0;0;0;0.85
OENCIA;103;LEÓN;24;24103;277;BIERZO SUROESTE;ARNADELO,ARNADO,GESTOSO,LUSIO,OENCIA,VILLARRUBÍN;COMARCA DE EL BIERZO;-6.970608;42.546796;173971.26;4718134.56;42.546796, -6.970608;0;0;0;0.99
PALACIOS DEL SIL;109;LEÓN;24;24109;844;;CUEVAS DEL SIL,MATALAVILLA,PALACIOS DEL SIL,SALIENTES,SUSAÑE DEL SIL,TEJEDO DEL SIL,VALDEPRADO,VALSECO,VILLARINO DEL SIL;COMARCA DE EL BIERZO;-6.433875;42.87538;219532.87;4752698.18;42.87538, -6.433875;0;0;0;0.89
PÁRAMO DEL SIL;110;LEÓN;24;24110;1169;;ANLLARES DEL SIL,ANLLARINOS,ARGAYO,PÁRAMO DEL SIL,SALENTINOS,SANTA CRUZ DEL SIL,SORBEDA DEL SIL,VILLAMARTÍN DEL SIL;COMARCA DE EL BIERZO;-6.490129;42.82003;214682.79;4746740.09;42.82003, -6.490129;0;0;0;0.9
PRIORO;120;LEÓN;24;24120;349;MONTAÑA DE RIAÑO;PRIORO,TEJERINA;;-4.962127;42.893396;339791.7;4750844.23;42.893396, -4.962127;0;0;0;0.85
PUENTE DE DOMINGO FLÓREZ;122;LEÓN;24;24122;1385;ZONA ARQUEOLÓGICA DE LAS MÉDULAS (ZAM);CASTROQUILAME,LAS VEGAS DE YERES,PUENTE DE DOMINGO FLÓREZ,ROBLEDO DE SOBRECASTRO,SALAS DE LA RIBERA,SAN PEDRO DE TRONES,YERES;COMARCA DE EL BIERZO;-6.818355;42.410721;185793.28;4702446.52;42.410721, -6.818355;0;0;0;0.96
QUINTANA DEL CASTILLO;123;LEÓN;24;24123;717;LA CEPEDA;ABANO,CASTRO DE CEPEDA,DONILLAS,ESCUREDO,FERRERAS,MORRIONDO,PALACIOSMIL,QUINTANA DEL CASTILLO,RIOFRÍO,SAN FELIZ DE LAS LAVANDERAS,VEGUELLINA DE CEPEDA,VILLAMECA,VILLARMERIEL;;-6.045955;42.661303;250360.17;4727703.12;42.661303, -6.045955;0;0;0;0.17
QUINTANA DEL MARCO;124;LEÓN;24;24124;319;COMARCA DE LA BAÑEZA;GENESTACIO DE LA VEGA;;-5.851007;42.206083;264640.12;4676593.35;42.206083, -5.851007;0;0;0;0.19
QUINTANA Y CONGOSTO;125;LEÓN;24;24125;416;LAS CUATRO RIBERAS;HERREROS DE JAMUZ,PALACIOS DE JAMUZ,QUINTANA Y CONGOSTO,QUINTANILLA DE FLÓREZ,TABUYUELO DE JAMUZ,TORNEROS DE JAMUZ;;-6.037687;42.256138;249425.95;4682684.47;42.256138, -6.037687;0;0;0;0.21
RIAÑO;130;LEÓN;24;24130;474;MONTAÑA DE RIAÑO;CARANDE,HORCADAS,RIAÑO;;-5.016162;42.973051;335591.66;4759794.4;42.973051, -5.016162;0;0;0;0.85
RIEGO DE LA VEGA;131;LEÓN;24;24131;714;LAS CUATRO RIBERAS;CASTROTIERRA DE LA VALDUERNA,RIEGO DE LA VEGA,SAN FÉLIX DE LA VEGA,TORAL DE FONDO,TORALINO DE LA VEGA,VILLARNERA DE LA VEGA;;-5.982322;42.388788;254510.08;4697253.68;42.388788, -5.982322;0;0;0;0.17
ROPERUELOS DEL PÁRAMO;136;LEÓN;24;24136;499;COMARCA DE LA BAÑEZA;MOSCAS DEL PÁRAMO,ROPERUELOS DEL PÁRAMO,VALCABADO DEL PÁRAMO;;-5.782739;42.237478;270390.18;4679893.37;42.237478, -5.782739;0;0;0;0.18
SAHAGÚN;139;LEÓN;24;24139;2398;INTERPROVINCIAL SAHAGUN-VILLADA;ARENILLAS DE VALDERADUEY,CELADA DE CEA,GALLEGUILLOS DE CAMPOS,JOARA,RIOSEQUILLO,SAN MARTÍN DE LA CUEZA,SAN PEDRO DE LAS DUEÑAS,SOTILLO DE CEA,VILLALEBRÍN;;-5.033238;42.371199;332590.92;4692993.63;42.371199, -5.033238;0;0;0;0.2
SAN CRISTÓBAL DE LA POLANTERA;144;LEÓN;24;24144;625;DEPURACIÓN DEL ALTO ÓRBIGO,LAS CUATRO RIBERAS;POSADILLA DE LA VEGA,SAN CRISTÓBAL DE LA POLANTERA,SEISÓN DE LA VEGA,VEGUELLINA DE FONDO,VILLAGARCÍA DE LA VEGA;;-5.907452;42.390533;260680.16;4697233.66;42.390533, -5.907452;0;0;0;0.16
SAN MILLÁN DE LOS CABALLEROS;149;LEÓN;24;24149;191;SUR DE LEÓN (MANSURLE);;;-5.561072;42.284971;288840.32;4684593.38;42.284971, -5.561072;0;0;0;0.16
SANTA ELENA DE JAMUZ;154;LEÓN;24;24154;1015;LAS CUATRO RIBERAS;JIMÉNEZ DE JAMUZ,VILLANUEVA DE JAMUZ;;-5.888204;42.259454;261770.1;4682623.44;42.259454, -5.888204;0;0;0;0.18
SANTA MARÍA DE ORDÁS;158;LEÓN;24;24158;2999;OMAÑA-LUNA;ADRADOS DE ORDÁS,CALLEJO DE ORDÁS,FORMIGONES,RIOCASTRILLO DE ORDÁS,SANTA MARÍA DE ORDÁS,SANTIBÁÑEZ DE ORDÁS,SELGA DE ORDÁS,VILLAPODAMBRE,VILLARRODRIGO DE ORDÁS;;-5.823676;42.726353;268820.54;4734294.23;42.726353, -5.823676;0;0;0;0.13
SANTA MARINA DEL REY;159;LEÓN;24;24159;1745;DEL ÓRBIGO,DEPURACIÓN DEL ALTO ÓRBIGO;SAN MARTÍN DEL CAMINO,SANTA MARINA DEL REY,SARDONEDO,VILLAMOR DE ÓRBIGO,VILLAVANTE;;-5.861994;42.512796;264880.33;4710683.84;42.512796, -5.861994;0;0;0;0.13
URDIALES DEL PÁRAMO;174;LEÓN;24;24174;449;EL PÁRAMO;MANSILLA DEL PÁRAMO,VILLARRÍN DEL PÁRAMO;;-5.771081;42.37239;271840.27;4694843.58;42.37239, -5.771081;0;0;0;0.15
VAL DE SAN LORENZO;185;LEÓN;24;24185;492;;LAGUNAS DE SOMOZA,VAL DE SAN LORENZO,VAL DE SAN ROMÁN;;-6.122684;42.417871;243073.96;4700898.76;42.417871, -6.122684;0;0;0;0.19
VALDEFRESNO;175;LEÓN;24;24175;2335;LANCIA Y SOBARRIBA;ARCAHUEJA,CARBAJOSA,CORBILLOS DE LA SOBARRIBA,GOLPEJAR DE LA SOBARRIBA,NAVAFRÍA,PARADILLA DE LA SOBARRIBA,SANFELISMO,SANTA OLAJA DE PORMA,SANTIBÁÑEZ DE PORMA,SANTOVENIA DEL MONTE,SOLANILLA,TENDAL,VALDEFRESNO,VALDELAFUENTE,VILLACETE,VILLACIL,VILLAFELIZ DE LA SOBARRIBA,VILLALBOÑE,VILLASECA DE LA SOBARRIBA,VILLAVENTE;;-5.49251;42.593744;295500.75;4718713.88;42.593744, -5.49251;0;0;0;0.09
VALDEPIÉLAGO;179;LEÓN;24;24179;308;;AVIADOS,CORRECILLAS,LA MATA DE LA BÉRBULA,MONTUERTO,NOCEDO DE CURUEÑO,OTERO DE CURUEÑO,RANEDO DE CURUEÑO,VALDEPIÉLAGO,VALDORRIA;;-5.398413;42.869327;304091.18;4749094.37;42.869327, -5.398413;0;0;0;0.78
VALDEVIMBRE;187;LEÓN;24;24187;894;ESLA-BERNESGA;FONTECHA,PALACIOS DE FONTECHA,POBLADURA DE FONTECHA,VALDEVIMBRE,VALLEJO,VILLAGALLEGOS,VILLIBAÑE;;-5.620023;42.41962;284440.43;4699693.62;42.41962, -5.620023;0;0;0;0.12
VALENCIA DE DON JUAN;188;LEÓN;24;24188;5094;SUR DE LEÓN (MANSURLE);CABAÑAS;;-5.520189;42.293802;292240.36;4685473.4;42.293802, -5.520189;0;0;0;0.16
VALLECILLO;191;LEÓN;24;24191;101;ZONA DE SAHAGUN;VALLECILLO DE LAS MATAS,VILLEZA;;-5.210621;42.355757;317940.71;4691643.6;42.355757, -5.210621;0;0;0;0.17
VALVERDE DE LA VIRGEN;189;LEÓN;24;24189;7806;LEÓN SUR-OESTE,LEÓN Y ALFOZ,SANEAMIENTO INTEGRAL DE LEÓN Y SU ALFOZ;FRESNO DEL CAMINO,LA ALDEA DE LA VALDONCINA,LA VIRGEN DEL CAMINO,MONTEJOS DEL CAMINO,ONCINA DE LA VALDONCINA,ROBLEDO DE LA VALDONCINA,SAN MIGUEL DEL CAMINO,VALVERDE DE LA VIRGEN;;-5.682925;42.56918;279790.6;4716463.85;42.56918, -5.682925;0;0;0;0.09
VEGAS DEL CONDADO;201;LEÓN;24;24201;1154;;CASTRILLO DEL CONDADO,CASTRO DEL CONDADO,CEREZALES DEL CONDADO,REPRESA DEL CONDADO,SAN CIPRIANO DEL CONDADO,SAN VICENTE DEL CONDADO,SANTA MARÍA DEL MONTE CONDADO,SECOS DEL CONDADO,VEGAS DEL CONDADO,VILLAFRUELA DEL CONDADO,VILLAMAYOR DEL CONDADO,VILLANUEVA DEL CONDADO;;-5.364936;42.68479;306250.98;4728523.96;42.68479, -5.364936;0;0;0;0.12
VILLABLINO;202;LEÓN;24;24202;7709;;CABOALLES DE ABAJO,CABOALLES DE ARRIBA,EL VILLAR DE SANTIAGO,LLAMAS DE LACIANA,LUMAJO,ORALLO,RABANAL DE ABAJO,RABANAL DE ARRIBA,RIOSCURO,ROBLES DE LACIANA,SOSAS DE LACIANA,VILLAGER DE LACIANA,VILLASECA DE LACIANA;;-6.317;42.939834;229362.04;4759473.35;42.939834, -6.317;0;1;0;0.88
VILLAGATÓN;210;LEÓN;24;24210;636;LA CEPEDA;BRAÑUELAS,CULEBROS,LA SILVA,LOS BARRIOS DE NISTOSO,MANZANAL DEL PUERTO,MONTEALEGRE,REQUEJO Y CORÚS,UCEDO,VALBUENA DE LA ENCOMIENDA,VILLAGATÓN;;-6.161846;42.634792;240751.0;4725108.07;42.634792, -6.161846;0;0;0;0.19
VILLAMANÍN;901;LEÓN;24;24901;876;ALTO BERNESGA,MONTAÑA CENTRAL;BARRIO DE LA TERCIA,BUSDONGO,CAMPLONGO,CASARES DE ARBAS,CUBILLAS DE ARBAS,FONTÚN DE LA TERCIA,GOLPEJAR DE LA TERCIA,MILLARO,PENDILLA,POLADURA DE LA TERCIA,RODIEZMO,SAN MARTÍN DE LA TERCIA,TONÍN,VELILLA DE LA TERCIA,VENTOSILLA,VIADANGOS DE ARBAS,VILLANUEVA DE LA TERCIA;;-5.655952;42.937028;283291.04;4757244.69;42.937028, -5.655952;0;0;0;0.8
VILLAMAÑÁN;212;LEÓN;24;24212;1076;SUR DE LEÓN (MANSURLE);BENAMARIEL,VILLACALBIEL-SAN ESTEBAN,VILLACE;;-5.585622;42.321792;286940.32;4688743.45;42.321792, -5.585622;0;0;0;0.15
VILLAMARTÍN DE DON SANCHO;213;LEÓN;24;24213;144;ZONA DE SAHAGUN;;;-5.061023;42.570625;330841.27;4715193.9;42.570625, -5.061023;0;0;0;0.17
VILLAMOL;215;LEÓN;24;24215;136;ZONA DE SAHAGUN;VILLACALABUEY,VILLAMOL,VILLAPECEÑIL;;-5.04907;42.428552;331440.97;4699393.67;42.428552, -5.04907;0;0;0;0.19
VILLAORNATE Y CASTRO;902;LEÓN;24;24902;337;SUR DE LEÓN (MANSURLE);CASTROFUERTE;;-5.549757;42.184812;289440.39;4673443.26;42.184812, -5.549757;0;0;0;0.19
VILLAQUILAMBRE;222;LEÓN;24;24222;18647;LEÓN Y ALFOZ,SANEAMIENTO INTEGRAL DE LEÓN Y SU ALFOZ,SERFUNLE;CANALEJA DE TORÍO,CASTRILLINO,NAVATEJERA,ROBLEDO DE TORÍO,VILLAMOROS DE LAS REGUERAS,VILLANUEVA DEL ÁRBOL,VILLAOBISPO DE LAS REGUERAS,VILLAQUILAMBRE,VILLARRODRIGO DE LAS REGUERAS,VILLASINTA DE TORÍO;;-5.55877;42.646313;290240.78;4724713.98;42.646313, -5.55877;0;0;0;0.08
VILLAREJO DE ÓRBIGO;223;LEÓN;24;24223;2873;DEL ÓRBIGO,DEPURACIÓN DEL ALTO ÓRBIGO;ESTÉBANEZ DE LA CALZADA,VEGUELLINA DE ÓRBIGO,VILLAREJO DE ÓRBIGO,VILLORIA DE ÓRBIGO;;-5.903779;42.445197;261190.21;4703293.75;42.445197, -5.903779;0;0;0;0.15
VILLASABARIEGO;225;LEÓN;24;24225;1148;LANCIA Y SOBARRIBA;PALAZUELO DE ESLONZA,VALLE DE MANSILLA,VEGA DE LOS ÁRBOLES,VILLABÚRBULA,VILLACONTILDE,VILLAFALÉ,VILLAFAÑE,VILLARENTE,VILLASABARIEGO,VILLIGUER,VILLIMER;;-5.414738;42.533365;301690.69;4711823.78;42.533365, -5.414738;0;0;0;0.11
VILLASELÁN;226;LEÓN;24;24226;180;ZONA DE SAHAGUN;ARCAYOS,CASTROAÑE,SANTA MARÍA DEL RÍO,VALDAVIDA,VILLACERÁN,VILLASELÁN;;-5.047914;42.560954;331891.25;4714093.87;42.560954, -5.047914;0;0;0;0.18
ZOTES DEL PÁRAMO;230;LEÓN;24;24230;402;EL PÁRAMO;VILLAESTRIGO DEL PÁRAMO,ZAMBROCINOS DEL PÁRAMO,ZOTES DEL PÁRAMO;;-5.73638;42.272364;274340.21;4683643.4;42.272364, -5.73638;0;0;0;0.17
AGUILAR DE CAMPOO;4;PALENCIA;34;34004;6823;AGUILAR-VALDIVIA;BARRIO DE SAN PEDRO,BARRIO DE SANTA MARÍA,CABRIA,CANDUELA,CORDOVILLA,CORVIO,FOLDADA,LOMILLA DE AGUILAR,MATALBANIEGA,MATAMORISCA,MAVE,MENAZA,NÉSTAR,OLLEROS DE PISUERGA,POZANCOS,PUENTETOMA,VALLESPINOSO DE AGUILAR,VALORIA DE AGUILAR,VILLACIBIO,VILLAVEGA DE AGUILAR;;-4.259938;42.792646;396959.22;4738558.62;42.792646, -4.259938;0;0;0;0.29
ALBA DE CERRATO;6;PALENCIA;34;34006;82;VALLES DEL CERRATO,ZONA CERRATO SUR;;;-4.365933;41.812498;386543.96;4629860.16;41.812498, -4.365933;0;0;0;0.13
AMUSCO;11;PALENCIA;34;34011;410;CAMPOS ZONA NORTE DEL CANAL DE CASTILLA,VILLAS DEL BAJO CARRIÓN Y UCIEZA;;;-4.470261;42.173116;378565.75;4670043.51;42.173116, -4.470261;0;0;0;0.12
AUTILLA DEL PINO;18;PALENCIA;34;34018;219;ALCOR - CAMPOS,CAMPOS ESTE;;;-4.633994;41.991182;364655.86;4650088.48;41.991182, -4.633994;0;0;0;0.09
BALTANÁS;22;PALENCIA;34;34022;1228;AGUAS BALTANÁS-VILLAVIUDAS,VALLES DEL CERRATO,ZONA NORTE DEL CERRATO;VALDECAÑAS DE CERRATO;;-4.246125;41.939332;396700.03;4643791.21;41.939332, -4.246125;0;0;0;0.13
BÁRCENA DE CAMPOS;25;PALENCIA;34;34025;53;LA VALLARNA;;;-4.49966;42.48339;376744.86;4704538.22;42.48339, -4.49966;0;0;0;0.2
CALAHORRA DE BOEDO;41;PALENCIA;34;34041;83;BOEDO-OJEDA,VALLE DEL BOEDO;;;-4.386044;42.57537;386250.0;4714593.03;42.57537, -4.386044;0;0;0;0.23
CAPILLAS;45;PALENCIA;34;34045;72;CAMPOS,ZONA CAMPOS OESTE;;;-4.890722;42.013637;343445.35;4653019.5;42.013637, -4.890722;0;0;0;0.14
CONGOSTO DE VALDAVIA;62;PALENCIA;34;34062;140;COMARCA DE SALDAÑA;CORNONCILLO,VILLANUEVA DE ABAJO;;-4.634857;42.714604;366128.95;4730418.64;42.714604, -4.634857;0;0;0;0.27
ESPINOSA DE VILLAGONZALO;71;PALENCIA;34;34071;154;LA VALLARNA,VALLE DEL BOEDO;;;-4.370744;42.481354;387336.86;4704132.88;42.481354, -4.370744;0;0;0;0.21
FUENTES DE NAVA;76;PALENCIA;34;34076;567;CAMPOS Y NAVA;;;-4.781862;42.083259;352620.46;4660556.59;42.083259, -4.781862;0;0;0;0.13
GUARDO;80;PALENCIA;34;34080;5548;AGUAS DEL CARRION,ALTO CARRION;;;-4.84151;42.788941;349386.79;4739021.99;42.788941, -4.84151;0;0;0;0.3
GUAZA DE CAMPOS;81;PALENCIA;34;34081;55;CAMPOS Y NAVA,VILLAS DE TIERRA DE CAMPOS;;;-4.90823;42.135731;342298.23;4666608.6;42.135731, -4.90823;0;0;0;0.16
HONTORIA DE CERRATO;86;PALENCIA;34;34086;106;DEL CERRATO,ZONA CERRATO SUR;;;-4.443069;41.911204;380321.1;4640924.28;41.911204, -4.443069;0;0;0;0.1
LA SERNA;175;PALENCIA;34;34175;93;COMARCA DE SALDAÑA;;;-4.664614;42.415194;363038.65;4697218.59;42.415194, -4.664614;0;0;0;0.19
LA VID DE OJEDA;93;PALENCIA;34;34093;90;BOEDO-OJEDA;;;-4.38495;42.659136;386492.1;4723893.22;42.659136, -4.38495;0;0;0;0.25
LANTADILLA;92;PALENCIA;34;34092;273;ODRA-PISUERGA;;;-4.274928;42.340756;394977.85;4688398.12;42.340756, -4.274928;0;0;0;0.18
MAGAZ DE PISUERGA;98;PALENCIA;34;34098;1031;DEL CERRATO;;;-4.426836;41.982451;381799.03;4648812.34;41.982451, -4.426836;0;0;0;0.09
MUDÁ;110;PALENCIA;34;34110;80;EL CARMEN,VALLE DEL PISUERGA;;;-4.394121;42.875967;386138.35;4747983.92;42.875967, -4.394121;0;0;0;0.94
OLEA DE BOEDO;113;PALENCIA;34;34113;39;BOEDO-OJEDA,VALLE DEL BOEDO;;;-4.448945;42.608643;381151.02;4718374.19;42.608643, -4.448945;0;0;0;0.24
PÁRAMO DE BOEDO;122;PALENCIA;34;34122;104;BOEDO-OJEDA,VALLE DEL BOEDO;PÁRAMO DE BOEDO,VILLANECERIEL DE BOEDO,ZORITA DEL PÁRAMO;;-4.396834;42.579462;385372.0;4715062.05;42.579462, -4.396834;0;0;0;0.23
PAREDES DE NAVA;123;PALENCIA;34;34123;1911;CAMPOS Y NAVA;;;-4.694164;42.152818;360027.53;4668132.62;42.152818, -4.694164;0;0;0;0.12
PEDRAZA DE CAMPOS;125;PALENCIA;34;34125;72;ALCOR - CAMPOS,CAMPOS ESTE;;;-4.736645;41.983496;356135.65;4649402.5;41.983496, -4.736645;0;0;0;0.11
PEDROSA DE LA VEGA;126;PALENCIA;34;34126;280;COMARCA DE SALDAÑA;GAÑINAS DE LA VEGA,LOBERA DE LA VEGA,VILLARRODRIGO DE LA VEGA;;-4.74659;42.47994;356441.57;4704543.63;42.47994, -4.74659;0;0;0;0.21
PINO DEL RÍO;129;PALENCIA;34;34129;163;AGUAS DEL CARRION,COMARCA DE SALDAÑA;CELADILLA DEL RÍO,PINO DEL RÍO;;-4.806071;42.644268;351941.67;4722893.75;42.644268, -4.806071;0;0;0;0.26
PIÑA DE CAMPOS;130;PALENCIA;34;34130;193;CAMPOS ZONA NORTE DEL CANAL DE CASTILLA,VILLAS DEL BAJO CARRIÓN Y UCIEZA;;;-4.435362;42.213545;381523.75;4674483.49;42.213545, -4.435362;0;0;0;0.13
POBLACIÓN DE ARROYO;131;PALENCIA;34;34131;42;CAMPOS Y NAVA;ARROYO,POBLACIÓN DE ARROYO;;-4.874743;42.336825;345557.14;4688876.66;42.336825, -4.874743;0;0;0;0.19
POZA DE LA VEGA;136;PALENCIA;34;34136;166;COMARCA DE SALDAÑA;;;-4.796782;42.578297;352547.6;4715551.7;42.578297, -4.796782;0;0;0;0.24
PRÁDANOS DE OJEDA;139;PALENCIA;34;34139;181;BOEDO-OJEDA;;;-4.347618;42.6825;389593.14;4726438.24;42.6825, -4.347618;0;0;0;0.26
RENEDO DE LA VEGA;147;PALENCIA;34;34147;192;COMARCA DE SALDAÑA;MOSLARES DE LA VEGA,RENEDO DE LA VEGA,SANTILLÁN DE LA VEGA;;-4.702426;42.453894;360013.63;4701577.6;42.453894, -4.702426;0;0;0;0.2
SALDAÑA;157;PALENCIA;34;34157;2869;AGUAS DEL CARRION,COMARCA DE SALDAÑA;CARBONERA,MEMBRILLAR,RELEA,VALCABADILLO,VALENOSO,VEGA DE DOÑA OLIMPA,VILLAFRUEL,VILLALAFUENTE,VILLANUEVA DEL MONTE,VILLASUR,VILLORQUITE DEL PÁRAMO;;-4.735138;42.522062;357478.65;4709201.62;42.522062, -4.735138;0;0;0;0.22
SAN CRISTÓBAL DE BOEDO;161;PALENCIA;34;34161;20;BOEDO-OJEDA;;;-4.35198;42.542275;388986.97;4710872.91;42.542275, -4.35198;0;0;0;0.22
SANTA CECILIA DEL ALCOR;167;PALENCIA;34;34167;92;ALCOR - CAMPOS;;;-4.659757;41.932604;362395.86;4643625.43;41.932604, -4.659757;0;0;0;0.1
TORREMORMOJÓN;184;PALENCIA;34;34184;45;ALCOR - CAMPOS;;;-4.777317;41.961474;352715.57;4647026.47;41.961474, -4.777317;0;0;0;0.12
VALDERRÁBANO;190;PALENCIA;34;34190;47;COMARCA DE SALDAÑA;VALDERRÁBANO,VALLES DE VALDAVIA;;-4.65438;42.604926;364291.86;4718270.54;42.604926, -4.65438;0;0;0;0.24
VALDE-UCIEZA;192;PALENCIA;34;34192;76;CAMINO DE SANTIAGO;;;-4.575278;42.398462;370354.75;4695220.46;42.398462, -4.575278;0;0;0;0.18
VALLE DE CERRATO;196;PALENCIA;34;34196;83;VALLES DEL CERRATO,ZONA CERRATO SUR;;;-4.363428;41.879402;386870.04;4637285.2;41.879402, -4.363428;0;0;0;0.12
VILLACONANCIO;205;PALENCIA;34;34205;50;VALLES DEL CERRATO,ZONA CERRATO SUR;;;-4.223761;41.871743;398446.95;4636260.15;41.871743, -4.223761;0;0;0;0.14
VILLADA;206;PALENCIA;34;34206;834;INTERPROVINCIAL SAHAGUN-VILLADA;VILLEMAR;;-4.967837;42.248945;337662.01;4679291.64;42.248945, -4.967837;0;0;0;0.18
VILLAELES DE VALDAVIA;208;PALENCIA;34;34208;48;COMARCA DE SALDAÑA;;;-4.584342;42.565319;369954.91;4713762.41;42.565319, -4.584342;0;0;0;0.22
VILLAHÁN;210;PALENCIA;34;34210;99;CANAL DEL PISUERGA,ZONA NORTE DEL CERRATO;;;-4.131063;42.05098;406402.19;4656055.29;42.05098, -4.131063;0;0;0;0.15
VILLAHERREROS;211;PALENCIA;34;34211;209;LA VALLARNA;FUENTE ANDRINO;;-4.461144;42.389345;379730.78;4694040.23;42.389345, -4.461144;0;0;0;0.18
VILLALACO;213;PALENCIA;34;34213;61;CANAL DEL PISUERGA;;;-4.258655;42.155179;396013.97;4667772.44;42.155179, -4.258655;0;0;0;0.14
VILLALCÓN;216;PALENCIA;34;34216;48;CAMPOS Y NAVA;;;-4.856566;42.292885;346948.16;4683964.67;42.292885, -4.856566;0;0;0;0.17
VILLANUEVA DEL REBOLLAR;227;PALENCIA;34;34227;67;CAMPOS Y NAVA;;;-4.745515;42.241954;355987.35;4678115.66;42.241954, -4.745515;0;0;0;0.15
VILLARRAMIEL;232;PALENCIA;34;34232;788;CAMPOS,ZONA CAMPOS OESTE;;;-4.910772;42.042367;341856.32;4656246.52;42.042367, -4.910772;0;0;0;0.15
VILLASARRACINO;233;PALENCIA;34;34233;132;LA VALLARNA;;;-4.496589;42.412132;376857.79;4696621.28;42.412132, -4.496589;0;0;0;0.18
VILLASILA DE VALDAVIA;234;PALENCIA;34;34234;60;COMARCA DE SALDAÑA;;;-4.55906;42.53193;371961.89;4710016.36;42.53193, -4.55906;0;0;0;0.22
VILLAVIUDAS;238;PALENCIA;34;34238;366;AGUAS BALTANÁS-VILLAVIUDAS,DEL CERRATO;;;-4.342024;41.961687;388789.03;4646393.28;41.961687, -4.342024;0;0;0;0.11
VILLERÍAS DE CAMPOS;240;PALENCIA;34;34240;76;AGUAS CAMPOS-ALCORES,ALCOR - CAMPOS;;;-4.857862;41.944798;346000.42;4645316.43;41.944798, -4.857862;0;0;0;0.14
VILLODRE;241;PALENCIA;34;34241;24;CANAL DEL PISUERGA;;;-4.245446;42.21172;397196.94;4674034.43;42.21172, -4.245446;0;0;0;0.15
AGALLAS;2;SALAMANCA;37;37002;132;ALTO ÁGUEDA,BURGUILLOS;;;-6.440867;40.448251;208190.06;4483198.93;40.448251, -6.440867;0;0;0;0.92
ALARAZ;7;SALAMANCA;37;37007;448;MARGAÑÁN;;;-5.288001;40.747528;306835.57;4513249.08;40.747528, -5.288001;0;0;0;0.17
ALBA DE YELTES;9;SALAMANCA;37;37009;200;RIBERAS DEL AGUEDA, YELTES Y AGADON;;;-6.316001;40.671591;219715.76;4507590.76;40.671591, -6.316001;0;0;0;0.23
ALCONADA;12;SALAMANCA;37;37012;134;COMARCA DE PEÑARANDA;;;-5.36395;40.910879;300912.49;4531554.28;40.910879, -5.36395;0;0;0;0.13
ALDEA DEL OBISPO;15;SALAMANCA;37;37015;252;PUENTE LA UNIÓN;;;-6.791362;40.70728;179698.91;4513180.21;40.70728, -6.791362;0;0;0;0.81
ALDEACIPRESTE;13;SALAMANCA;37;37013;91;EMBALSE DE BÉJAR,RUTA DE LA PLATA;;;-5.896092;40.380956;254152.74;4474068.24;40.380956, -5.896092;0;0;0;0.87
ALDEALENGUA;16;SALAMANCA;37;37016;713;LA ARMUÑA;;;-5.549634;40.982274;285504.42;4539920.32;40.982274, -5.549634;0;0;0;0.09
ALDEARRUBIA;20;SALAMANCA;37;37020;519;ZONA DE CANTALAPIEDRA Y LAS VILLAS;;;-5.499319;41.007678;289818.46;4542618.36;41.007678, -5.499319;0;0;0;0.11
ALMENDRA;28;SALAMANCA;37;37028;132;COMARCA DE LEDESMA;;;-6.340768;41.229708;219992.93;4569640.84;41.229708, -6.340768;0;0;0;0.23
ANAYA DE ALBA;29;SALAMANCA;37;37029;183;AGUAS DE SANTA TERESA,TIERRAS DEL TORMES;HERREZUELO;;-5.493136;40.728217;289454.56;4511577.16;40.728217, -5.493136;0;0;0;0.14
AÑOVER DE TORMES;30;SALAMANCA;37;37030;89;COMARCA DE LEDESMA;;;-5.915306;41.136195;255309.33;4557973.3;41.136195, -5.915306;0;0;0;0.14
ARAPILES;32;SALAMANCA;37;37032;739;PANTANO DE SANTA TERESA;;;-5.644704;40.894131;277209.39;4530372.24;40.894131, -5.644704;0;0;0;0.09
ARMENTEROS;35;SALAMANCA;37;37035;186;AGUAS DE SANTA TERESA,ALTO TORMES;;;-5.449177;40.592929;292748.65;4496453.1;40.592929, -5.449177;0;0;0;0.81
BABILAFUENTE;38;SALAMANCA;37;37038;925;ZONA DE CANTALAPIEDRA Y LAS VILLAS;;;-5.426091;40.976673;295881.49;4539002.36;40.976673, -5.426091;0;0;0;0.12
BARBADILLO;40;SALAMANCA;37;37040;390;COMARCA DE LEDESMA;;;-5.881686;40.931492;257380.34;4535151.15;40.931492, -5.881686;0;0;0;0.12
BARBALOS;41;SALAMANCA;37;37041;73;CUATRO CAMINOS,LAS DEHESAS;;;-5.94264;40.677534;251300.6;4507125.99;40.677534, -5.94264;0;0;0;0.17
BÉJAR;46;SALAMANCA;37;37046;11957;EMBALSE DE BÉJAR;FUENTEBUENA DE BÉJAR,VALDESANGIL;;-5.767484;40.387034;265092.67;4474393.16;40.387034, -5.767484;0;0;0;0.86
BERMELLAR;49;SALAMANCA;37;37049;131;COMARCA DEL ABADENGO;;;-6.67043;40.999271;191278.07;4545168.31;40.999271, -6.67043;0;0;0;0.77
BERROCAL DE SALVATIERRA;51;SALAMANCA;37;37051;70;GUIJUELO Y SU ENTORNO COMARCAL,PANTANO DE SANTA TERESA;;;-5.690825;40.632252;272431.54;4501416.1;40.632252, -5.690825;0;0;0;0.16
BUENAMADRE;59;SALAMANCA;37;37059;109;CAMPO CHARRO,LAS DEHESAS;;;-6.25018;40.856242;226040.42;4527884.81;40.856242, -6.25018;0;0;0;0.2
CABEZABELLOSA DE LA CALZADA;62;SALAMANCA;37;37062;74;LA ARMUÑA;;;-5.488905;41.043715;290808.49;4546594.4;41.043715, -5.488905;0;0;0;0.11
CABRERIZOS;67;SALAMANCA;37;37067;4226;LA ARMUÑA;;;-5.608448;40.977859;280541.39;4539576.28;40.977859, -5.608448;0;0;0;0.08
CANTALPINO;82;SALAMANCA;37;37082;804;ZONA DE CANTALAPIEDRA Y LAS VILLAS;;;-5.327984;41.052737;304361.61;4547222.46;41.052737, -5.327984;0;0;0;0.14
CARBAJOSA DE LA SAGRADA;85;SALAMANCA;37;37085;7636;;;;-5.651181;40.932947;276794.38;4534698.24;40.932947, -5.651181;0;0;0;0.08
CARPIO DE AZABA;86;SALAMANCA;37;37086;112;PUENTE LA UNIÓN;;;-6.646795;40.595867;191401.06;4500291.43;40.595867, -6.646795;0;0;0;0.93
CASILLAS DE FLORES;91;SALAMANCA;37;37091;168;AGUAS ÁGUEDA-AZABA,ALTO ÁGUEDA;;;-6.753858;40.382444;181329.61;4476974.81;40.382444, -6.753858;0;0;0;0.98
CEREZAL DE PEÑAHORCADA;100;SALAMANCA;37;37100;67;CENTRO DUERO;;;-6.651394;41.130802;193491.83;4559706.55;41.130802, -6.651394;0;0;0;0.77
CERRALBO;101;SALAMANCA;37;37101;111;COMARCA DEL ABADENGO;;;-6.587573;40.974011;198133.17;4542073.37;40.974011, -6.587573;0;0;0;0.75
CHAGARCÍA MEDIANERO;114;SALAMANCA;37;37114;73;AGUAS DE SANTA TERESA,ALTO TORMES;;;-5.382281;40.649707;298580.64;4502601.05;40.649707, -5.382281;0;0;0;0.17
CRISTÓBAL;112;SALAMANCA;37;37112;162;EMBALSE DE BÉJAR,ENTRESIERRAS;;;-5.889879;40.469697;255002.7;4483903.16;40.469697, -5.889879;0;0;0;0.84
ÉJEME;118;SALAMANCA;37;37118;144;TIERRAS DEL TORMES;;;-5.539823;40.766507;285634.5;4515941.2;40.766507, -5.539823;0;0;0;0.13
EL CABACO;61;SALAMANCA;37;37061;225;LAS DEHESAS;;;-6.127783;40.564861;235205.8;4495157.0;40.564861, -6.127783;0;0;0;0.85
EL MAÍLLO;177;SALAMANCA;37;37177;282;LAS DEHESAS;;;-6.179325;40.56492;230841.83;4495319.96;40.56492, -6.179325;0;0;0;0.85
EL MILANO;191;SALAMANCA;37;37191;88;CENTRO DUERO;;;-6.599243;41.09174;197690.91;4555186.53;41.09174, -6.599243;0;0;0;0.76
EL PAYO;234;SALAMANCA;37;37234;313;ALTO ÁGUEDA;;;-6.726841;40.286541;183174.67;4466229.1;40.286541, -6.726841;0;0;0;0.99
EL SAHUGO;303;SALAMANCA;37;37303;181;ALTO ÁGUEDA,BURGUILLOS;;;-6.543121;40.414311;199365.19;4479773.89;40.414311, -6.543121;0;0;0;0.94
EL TEJADO;319;SALAMANCA;37;37319;83;ALTO TORMES;;;-5.541351;40.441311;284462.67;4479842.11;40.441311, -5.541351;0;0;0;0.85
EL TORNADIZO;325;SALAMANCA;37;37325;86;ENTRESIERRAS,GUIJUELO Y SU ENTORNO COMARCAL;;;-5.890615;40.542015;255203.66;4491934.09;40.542015, -5.890615;0;0;0;0.83
ENCINA DE SAN SILVESTRE;120;SALAMANCA;37;37120;100;CABEZA DE HORNO,COMARCA DE LEDESMA;;;-6.091669;41.01476;240026.18;4545001.02;41.01476, -6.091669;0;0;0;0.16
ENCINAS DE ABAJO;121;SALAMANCA;37;37121;619;ZONA DE CANTALAPIEDRA Y LAS VILLAS;;;-5.470133;40.934232;292042.45;4534394.3;40.934232, -5.470133;0;0;0;0.11
ENCINASOLA DE LOS COMENDADORES;123;SALAMANCA;37;37123;148;CENTRO DUERO;;;-6.531365;41.031523;203122.07;4548266.52;41.031523, -6.531365;0;0;0;0.74
ESPADAÑA;126;SALAMANCA;37;37126;34;CABEZA DE HORNO,VITIGUDINO;;;-6.285203;41.062158;223948.14;4550858.84;41.062158, -6.285203;0;0;0;0.2
FRESNO ALHÁNDIGA;134;SALAMANCA;37;37134;181;CUATRO CAMINOS,PANTANO DE SANTA TERESA;;;-5.616224;40.71244;279006.5;4510128.17;40.71244, -5.616224;0;0;0;0.14
GALINDO Y PERAHUY;142;SALAMANCA;37;37142;704;COMARCA DE LEDESMA;;;-5.872686;40.942768;258179.34;4536378.17;40.942768, -5.872686;0;0;0;0.11
GALINDUSTE;143;SALAMANCA;37;37143;400;AGUAS DE SANTA TERESA,TIERRAS DEL TORMES;;;-5.541202;40.662729;285184.57;4504423.14;40.662729, -5.541202;0;0;0;0.16
GALISANCHO;144;SALAMANCA;37;37144;325;TIERRAS DEL TORMES;;;-5.554121;40.743889;284354.51;4513465.18;40.743889, -5.554121;0;0;0;0.13
GALLEGOS DE SOLMIRÓN;146;SALAMANCA;37;37146;109;ALTO TORMES;;;-5.449556;40.537281;292544.66;4490276.1;40.537281, -5.449556;0;0;0;0.83
GARCIRREY;149;SALAMANCA;37;37149;55;CAMPO CHARRO,LAS DEHESAS;;;-6.13059;40.90056;236298.3;4532437.91;40.90056, -6.13059;0;0;0;0.17
GEJUELO DEL BARRO;150;SALAMANCA;37;37150;31;CABEZA DE HORNO,COMARCA DE LEDESMA;;;-6.123694;41.077157;237581.15;4552025.03;41.077157, -6.123694;0;0;0;0.17
HERGUIJUELA DEL CAMPO;159;SALAMANCA;37;37159;62;GUIJUELO Y SU ENTORNO COMARCAL,LINARES DE RIOFRÍO Y SU ENTORNO;;;-5.863984;40.630408;257778.59;4501674.04;40.630408, -5.863984;0;0;0;0.17
HINOJOSA DE DUERO;160;SALAMANCA;37;37160;577;COMARCA DEL ABADENGO;;;-6.796383;40.985442;180615.14;4544086.3;40.985442, -6.796383;0;0;0;0.8
HORCAJO MEDIANERO;162;SALAMANCA;37;37162;205;AGUAS DE SANTA TERESA,ALTO TORMES;;;-5.405967;40.639118;296545.64;4501480.07;40.639118, -5.405967;0;0;0;0.17
HUERTA;164;SALAMANCA;37;37164;285;ZONA DE CANTALAPIEDRA Y LAS VILLAS;;;-5.468289;40.968265;292304.46;4538168.33;40.968265, -5.468289;0;0;0;0.11
LA ALAMEDILLA;6;SALAMANCA;37;37006;101;ALTO ÁGUEDA;;;-6.827574;40.472387;175503.56;4487230.64;40.472387, -6.827574;0;0;0;0.98
LA BASTIDA;45;SALAMANCA;37;37045;26;LAS DEHESAS;;;-6.058531;40.585154;241147.74;4497204.01;40.585154, -6.058531;0;0;0;0.83
LA CALZADA DE BÉJAR;71;SALAMANCA;37;37071;85;EMBALSE DE BÉJAR,RUTA DE LA PLATA;;;-5.815877;40.409978;261065.68;4477070.17;40.409978, -5.815877;0;0;0;0.86
LA HOYA;163;SALAMANCA;37;37163;30;RUTA DE LA PLATA;;;-5.699542;40.406872;270927.66;4476417.13;40.406872, -5.699542;0;0;0;0.85
LA MAYA;188;SALAMANCA;37;37188;158;GUIJUELO Y SU ENTORNO COMARCAL,PANTANO DE SANTA TERESA;;;-5.613511;40.686983;279151.52;4507295.15;40.686983, -5.613511;0;0;0;0.15
LA PEÑA;243;SALAMANCA;37;37243;70;;;;-6.518864;41.174234;204813.86;4564070.68;41.174234, -6.518864;0;0;0;0.75
LA REDONDA;266;SALAMANCA;37;37266;65;COMARCA DEL ABADENGO;;;-6.749546;40.908303;184188.33;4535350.17;40.908303, -6.749546;0;0;0;0.79
LA RINCONADA DE LA SIERRA;268;SALAMANCA;37;37268;100;LAS DEHESAS;;;-6.019858;40.610986;244519.7;4499958.99;40.610986, -6.019858;0;0;0;0.19
LA SAGRADA;273;SALAMANCA;37;37273;82;LAS DEHESAS;;;-6.072182;40.743607;240607.58;4514836.9;40.743607, -6.072182;0;0;0;0.18
LA VELLÉS;347;SALAMANCA;37;37347;540;LA ARMUÑA;;;-5.568248;41.073471;284236.45;4550091.39;41.073471, -5.568248;0;0;0;0.11
LAS CASAS DEL CONDE;90;SALAMANCA;37;37090;63;SIERRA DE FRANCIA;;;-6.041172;40.507875;242320.79;4488573.12;40.507875, -6.041172;0;0;0;0.85
LEDESMA;170;SALAMANCA;37;37170;1517;COMARCA DE LEDESMA;;;-5.999971;41.087852;248017.23;4552847.19;41.087852, -5.999971;0;0;0;0.15
LEDRADA;171;SALAMANCA;37;37171;465;EMBALSE DE BÉJAR,RUTA DE LA PLATA;;;-5.719471;40.46862;269447.63;4483324.11;40.46862, -5.719471;0;0;0;0.84
LOS SANTOS;300;SALAMANCA;37;37300;580;ENTRESIERRAS,GUIJUELO Y SU ENTORNO COMARCAL;;;-5.796666;40.543942;263167.61;4491891.09;40.543942, -5.796666;0;0;0;0.82
MACOTERA;174;SALAMANCA;37;37174;1001;MARGAÑÁN;;;-5.285467;40.830799;307290.52;4522488.17;40.830799, -5.285467;0;0;0;0.16
MANCERA DE ABAJO;179;SALAMANCA;37;37179;197;COMARCA DE PEÑARANDA;;;-5.199651;40.839602;314551.55;4523280.17;40.839602, -5.199651;0;0;0;0.17
MARTIAGO;181;SALAMANCA;37;37181;250;ALTO ÁGUEDA,BURGUILLOS;;;-6.490816;40.453461;203976.1;4483943.86;40.453461, -6.490816;0;0;0;0.92
MASUECO;184;SALAMANCA;37;37184;251;CENTRO DUERO;;;-6.589425;41.203474;199027.78;4567559.66;41.203474, -6.589425;0;0;0;0.77
MIRANDA DE AZÁN;192;SALAMANCA;37;37192;447;PANTANO DE SANTA TERESA;;;-5.681821;40.886518;274056.38;4529622.23;40.886518, -5.681821;0;0;0;0.09
MONLERAS;198;SALAMANCA;37;37198;245;CABEZA DE HORNO,COMARCA DE LEDESMA;;;-6.225906;41.186679;229444.05;4564498.96;41.186679, -6.225906;0;0;0;0.2
MORASVERDES;204;SALAMANCA;37;37204;229;RIBERAS DEL AGUEDA, YELTES Y AGADON;;;-6.2751;40.601582;222883.84;4499687.83;40.601582, -6.2751;0;0;0;0.23
MORILLE;205;SALAMANCA;37;37205;224;CUATRO CAMINOS,PANTANO DE SANTA TERESA;;;-5.697829;40.806982;272435.43;4520833.19;40.806982, -5.697829;0;0;0;0.11
MORÍÑIGO;206;SALAMANCA;37;37206;88;ZONA DE CANTALAPIEDRA Y LAS VILLAS;;;-5.413756;40.970195;296899.49;4538254.35;40.970195, -5.413756;0;0;0;0.12
NAVA DE FRANCIA;214;SALAMANCA;37;37214;120;LAS DEHESAS;;;-6.116042;40.535564;236084.82;4491869.04;40.535564, -6.116042;0;0;0;0.85
NAVA DE SOTROBAL;215;SALAMANCA;37;37215;160;COMARCA DE PEÑARANDA;;;-5.286611;40.889929;307365.51;4529055.24;40.889929, -5.286611;0;0;0;0.15
NAVALMORAL DE BÉJAR;217;SALAMANCA;37;37217;56;EMBALSE DE BÉJAR,RUTA DE LA PLATA;;;-5.782528;40.422504;263939.66;4478371.14;40.422504, -5.782528;0;0;0;0.85
NAVARREDONDA DE LA RINCONADA;219;SALAMANCA;37;37219;151;LAS DEHESAS;;;-6.012625;40.606249;245113.7;4499412.0;40.606249, -6.012625;0;0;0;0.19
NAVASFRÍAS;221;SALAMANCA;37;37221;362;ALTO ÁGUEDA;;;-6.818594;40.295127;175413.89;4467515.09;40.295127, -6.818594;0;0;0;1.0
PAJARES DE LA LAGUNA;225;SALAMANCA;37;37225;114;LA ARMUÑA;;;-5.509109;41.087925;289251.5;4551551.41;41.087925, -5.509109;0;0;0;0.12
PEDROSILLO EL RALO;238;SALAMANCA;37;37238;135;LA ARMUÑA;;;-5.548766;41.062438;285837.46;4548818.39;41.062438, -5.548766;0;0;0;0.11
PELABRAVO;240;SALAMANCA;37;37240;1366;DEL AZUD;;;-5.578731;40.935942;282904.4;4534848.27;40.935942, -5.578731;0;0;0;0.09
PEÑACABALLERA;244;SALAMANCA;37;37244;153;RUTA DE LA PLATA;;;-5.860565;40.344433;257037.73;4469915.25;40.344433, -5.860565;0;0;0;0.88
PEÑAPARDA;245;SALAMANCA;37;37245;308;ALTO ÁGUEDA;;;-6.668604;40.320593;188283.5;4469803.01;40.320593, -6.668604;0;0;0;0.98
PERALEJOS DE ARRIBA;249;SALAMANCA;37;37249;35;CABEZA DE HORNO,VITIGUDINO;;;-6.333493;41.004571;219645.22;4544618.76;41.004571, -6.333493;0;0;0;0.21
PEROMINGO;251;SALAMANCA;37;37251;122;EMBALSE DE BÉJAR,ENTRESIERRAS;;;-5.772246;40.463105;264953.64;4482851.12;40.463105, -5.772246;0;0;0;0.84
PINEDAS;252;SALAMANCA;37;37252;94;EMBALSE DE BÉJAR,RUTA DE LA PLATA;;;-5.960495;40.445157;248923.76;4481377.22;40.445157, -5.960495;0;0;0;0.86
POZOS DE HINOJO;257;SALAMANCA;37;37257;52;VITIGUDINO,YELTES;;;-6.410249;40.913622;212794.35;4534769.65;40.913622, -6.410249;0;0;0;0.23
PUENTE DEL CONGOSTO;261;SALAMANCA;37;37261;225;ALTO TORMES;BERCIMUELLE;;-5.526749;40.491453;285860.66;4485373.12;40.491453, -5.526749;0;0;0;0.83
PUERTO SEGURO;264;SALAMANCA;37;37264;55;PUENTE LA UNIÓN;;;-6.761014;40.827761;182837.55;4526448.15;40.827761, -6.761014;0;0;0;0.79
RETORTILLO;267;SALAMANCA;37;37267;174;CAMPO CHARRO,LAS DEHESAS;;;-6.359711;40.802287;216576.54;4522242.73;40.802287, -6.359711;0;0;0;0.22
ROBLIZA DE COJOS;270;SALAMANCA;37;37270;187;LAS DEHESAS;;;-5.976851;40.867826;249126.38;4528351.01;40.867826, -5.976851;0;0;0;0.14
ROLLÁN;271;SALAMANCA;37;37271;337;COMARCA DE LEDESMA;;;-5.916909;40.961931;254527.32;4538629.15;40.961931, -5.916909;0;0;0;0.12
SALDEANA;275;SALAMANCA;37;37275;99;CENTRO DUERO;;;-6.639199;41.020337;194003.03;4547397.38;41.020337, -6.639199;0;0;0;0.77
SAN MIGUEL DEL ROBLEDO;36;SALAMANCA;37;37036;43;SIERRA DE FRANCIA;;;-6.044636;40.536416;242136.78;4491752.07;40.536416, -6.044636;0;0;0;0.84
SAN MUÑOZ;289;SALAMANCA;37;37289;201;LAS DEHESAS;;;-6.126842;40.78319;236148.52;4519394.87;40.78319, -6.126842;0;0;0;0.18
SANCHOTELLO;282;SALAMANCA;37;37282;212;EMBALSE DE BÉJAR,RUTA DE LA PLATA;;;-5.752736;40.436162;266514.65;4479808.13;40.436162, -5.752736;0;0;0;0.85
SANTA MARÍA DE SANDO;293;SALAMANCA;37;37293;95;CABEZA DE HORNO,COMARCA DE LEDESMA;;;-6.130606;40.979763;236612.2;4541231.96;40.979763, -6.130606;0;0;0;0.17
SARDÓN DE LOS FRAILES;301;SALAMANCA;37;37301;101;CABEZA DE HORNO,COMARCA DE LEDESMA;;;-6.270565;41.213967;225812.01;4567668.92;41.213967, -6.270565;0;0;0;0.22
SEQUEROS;305;SALAMANCA;37;37305;207;SIERRA DE FRANCIA;;;-6.024664;40.512343;243736.78;4489021.11;40.512343, -6.024664;0;0;0;0.85
SOTOSERRANO;313;SALAMANCA;37;37313;513;EMBALSE DE BÉJAR,SIERRA DE FRANCIA;;;-6.032939;40.437792;242750.83;4480768.22;40.437792, -6.032939;0;0;0;0.87
TEJEDA Y SEGOYUELA;320;SALAMANCA;37;37320;97;LAS DEHESAS;;;-6.023581;40.631938;244284.68;4502295.97;40.631938, -6.023581;0;0;0;0.19
TERRADILLOS;322;SALAMANCA;37;37322;3220;RUTAS DE ALBA;;;-5.540784;40.837977;285783.46;4523878.23;40.837977, -5.540784;0;0;0;0.11
TREMEDAL DE TORMES;329;SALAMANCA;37;37329;35;CABEZA DE HORNO,COMARCA DE LEDESMA;;;-6.180923;41.074058;232760.13;4551854.96;41.074058, -6.180923;0;0;0;0.18
VALDECARROS;330;SALAMANCA;37;37330;310;TIERRAS DEL TORMES;;;-5.423073;40.77018;295500.56;4516070.14;40.77018, -5.423073;0;0;0;0.14
VALDELOSA;335;SALAMANCA;37;37335;404;COMARCA DE LEDESMA;;;-5.783025;41.171713;266539.42;4561553.36;41.171713, -5.783025;0;0;0;0.13
VALDERRODRIGO;337;SALAMANCA;37;37337;128;CENTRO DUERO;;;-6.509413;41.064661;205116.03;4551871.59;41.064661, -6.509413;0;0;0;0.74
VALVERDÓN;342;SALAMANCA;37;37342;264;COMARCA DE LEDESMA;;;-5.769559;41.046612;267227.36;4547627.31;41.046612, -5.769559;0;0;0;0.1
VILLAGONZALO DE TORMES;352;SALAMANCA;37;37352;216;DEL AZUD;;;-5.49663;40.891643;289676.45;4529729.26;40.891643, -5.49663;0;0;0;0.11
VILLAR DE GALLIMAZO;358;SALAMANCA;37;37358;198;COMARCA DE PEÑARANDA;;;-5.288824;40.953739;307364.55;4536144.34;40.953739, -5.288824;0;0;0;0.15
VILLAR DE LA YEGUA;359;SALAMANCA;37;37359;155;PUENTE LA UNIÓN;;;-6.704103;40.724886;187154.8;4514820.19;40.724886, -6.704103;0;0;0;0.79
VILLAR DE PERALONSO;360;SALAMANCA;37;37360;204;CABEZA DE HORNO,COMARCA DE LEDESMA;;;-6.221732;41.032151;229159.17;4547327.89;41.032151, -6.221732;0;0;0;0.19
VILLAR DE SAMANIEGO;361;SALAMANCA;37;37361;78;VITIGUDINO;;;-6.446813;41.12312;210633.99;4558152.72;41.12312, -6.446813;0;0;0;0.24
VILLARES DE YELTES;363;SALAMANCA;37;37363;96;LAS DEHESAS,YELTES;;;-6.413192;40.867252;212345.43;4529630.65;40.867252, -6.413192;0;0;0;0.23
VILLARMAYOR;365;SALAMANCA;37;37365;154;COMARCA DE LEDESMA;;;-5.972387;41.014903;250058.26;4544668.16;41.014903, -5.972387;0;0;0;0.14
VILLARMUERTO;366;SALAMANCA;37;37366;40;CABEZA DE HORNO,VITIGUDINO;;;-6.364307;41.054478;217267.14;4550259.75;41.054478, -6.364307;0;0;0;0.22
VILLASBUENAS;367;SALAMANCA;37;37367;164;CENTRO DUERO;;;-6.594966;41.062029;197913.97;4551872.49;41.062029, -6.594966;0;0;0;0.76
VILLASDARDO;368;SALAMANCA;37;37368;22;CABEZA DE HORNO,COMARCA DE LEDESMA;;;-6.162681;41.004852;234014.19;4544114.94;41.004852, -6.162681;0;0;0;0.18
VILLASECO DE LOS GAMITOS;369;SALAMANCA;37;37369;137;CABEZA DE HORNO,COMARCA DE LEDESMA;;;-6.112712;41.036628;238343.17;4547492.01;41.036628, -6.112712;0;0;0;0.17
VITIGUDINO;376;SALAMANCA;37;37376;2361;CABEZA DE HORNO;;;-6.43579;41.008182;211056.18;4545353.64;41.008182, -6.43579;0;0;0;0.23
YECLA DE YELTES;377;SALAMANCA;37;37377;222;VITIGUDINO,YELTES;;;-6.488149;40.959551;206436.24;4540128.53;40.959551, -6.488149;0;0;0;0.24
ADRADOS;3;SEGOVIA;40;40003;123;COMARCA DE LA CHURRERIA,PINARES;;;-4.115625;41.368595;406698.11;4580276.28;41.368595, -4.115625;0;0;0;0.19
AGUILAFUENTE;4;SEGOVIA;40;40004;564;PINARES;;;-4.111942;41.227948;406806.1;4564657.99;41.227948, -4.111942;0;0;0;0.15
ALCONADA DE MADERUELO;5;SEGOVIA;40;40005;26;NORDESTE;;;-3.486514;41.450295;459363.11;4588860.28;41.450295, -3.486514;0;0;0;0.26
ALDEALENGUA DE PEDRAZA;7;SEGOVIA;40;40007;79;;;;-3.806052;41.064036;432275.11;4546178.69;41.064036, -3.806052;0;0;0;0.14
ALDEANUEVA DE LA SERREZUELA;9;SEGOVIA;40;40009;42;VALLE DEL RIO RIAZA;;;-3.782959;41.460917;434612.56;4590221.11;41.460917, -3.782959;0;0;0;0.23
ALDEHORNO;14;SEGOVIA;40;40014;59;VALLE DEL RIO RIAZA;;;-3.779377;41.512751;434963.56;4595973.0;41.512751, -3.779377;0;0;0;0.24
ALDEHUELA DEL CODONAL;15;SEGOVIA;40;40015;24;RIBERAS DEL VOLTOYA;;;-4.536839;41.055601;370855.99;4546067.09;41.055601, -4.536839;0;0;0;0.16
ANAYA;17;SEGOVIA;40;40017;119;ZORITA MANZO;;;-4.308288;40.990574;389953.96;4538534.93;40.990574, -4.308288;0;0;0;0.11
BERCIAL;28;SEGOVIA;40;40028;105;ZORITA MANZO;;;-4.436307;40.905871;379030.84;4529300.93;40.905871, -4.436307;0;0;0;0.14
BOCEGUILLAS;32;SEGOVIA;40;40032;721;NUESTRA SEÑORA DE HORNUEZ;;;-3.638235;41.337001;446597.63;4576364.89;41.337001, -3.638235;0;0;0;0.22
BRIEVA;33;SEGOVIA;40;40033;86;DOS VALLES,FUENTE DEL MOJON;;;-4.053629;41.034736;411434.04;4543147.74;41.034736, -4.053629;0;0;0;0.1
CABALLAR;34;SEGOVIA;40;40034;75;DOS VALLES,SALVA RIOS;;;-3.964405;41.120192;419039.09;4552547.78;41.120192, -3.964405;0;0;0;0.13
CABEZUELA;36;SEGOVIA;40;40036;656;;;;-3.932888;41.235456;421822.11;4565314.97;41.235456, -3.932888;0;0;0;0.16
CANTALEJO;40;SEGOVIA;40;40040;3558;;VALDESIMONTE;;-3.927067;41.258455;422337.13;4567863.03;41.258455, -3.927067;0;0;0;0.17
CASTILLEJO DE MESLEÓN;46;SEGOVIA;40;40046;110;NUESTRA SEÑORA DE HORNUEZ;;;-3.600959;41.280939;449673.52;4570118.82;41.280939, -3.600959;0;0;0;0.21
CASTROSERNA DE ABAJO;49;SEGOVIA;40;40049;32;LA SIERRA;;;-3.734505;41.207923;438421.27;4562098.9;41.207923, -3.734505;0;0;0;0.18
CILLERUELO DE SAN MAMÉS;55;SEGOVIA;40;40055;35;NUESTRA SEÑORA DE HORNUEZ;;;-3.566516;41.431241;452666.93;4586785.55;41.431241, -3.566516;0;0;0;0.25
CORRAL DE AYLLÓN;61;SEGOVIA;40;40061;77;NORDESTE;;;-3.459316;41.391318;461600.13;4582300.33;41.391318, -3.459316;0;0;0;0.26
CUÉLLAR;63;SEGOVIA;40;40063;9530;LAS LOMAS;ARROYO DE CUÉLLAR,CAMPO DE CUÉLLAR,CHATÚN,LOVINGOS;;-4.317391;41.403698;389882.94;4584410.23;41.403698, -4.317391;0;0;0;0.21
CUEVAS DE PROVANCO;905;SEGOVIA;40;40905;132;;;;-3.960905;41.541808;419851.31;4599351.41;41.541808, -3.960905;0;0;0;0.24
DONHIERRO;69;SEGOVIA;40;40069;75;RIBERAS DEL VOLTOYA,RIO ERESMA;;;-4.694293;41.116645;357756.04;4553089.18;41.116645, -4.694293;0;0;0;0.2
DURUELO;70;SEGOVIA;40;40070;171;LA SIERRA;;;-3.647931;41.236853;445703.37;4565252.86;41.236853, -3.647931;0;0;0;0.2
ENCINILLAS;72;SEGOVIA;40;40072;352;ERESMA;;;-4.157913;41.017819;402643.01;4541380.8;41.017819, -4.157913;0;0;0;0.09
FRUMALES;81;SEGOVIA;40;40081;120;COMARCA DE LA CHURRERIA,PINARES;;;-4.187029;41.384211;400750.08;4582089.28;41.384211, -4.187029;0;0;0;0.19
FUENTE EL OLMO DE FUENTIDUEÑA;83;SEGOVIA;40;40083;395;;;;-4.000456;41.381202;416346.18;4581558.32;41.381202, -4.000456;0;0;0;0.2
FUENTEPELAYO;86;SEGOVIA;40;40086;772;PINARES;;;-4.176804;41.220791;401359.09;4563935.0;41.220791, -4.176804;0;0;0;0.15
FUENTEPIÑEL;87;SEGOVIA;40;40087;68;;;;-4.042907;41.400317;412822.16;4583722.37;41.400317, -4.042907;0;0;0;0.2
FUENTIDUEÑA;92;SEGOVIA;40;40092;133;;;;-3.98029;41.44151;418108.24;4588234.41;41.44151, -3.98029;0;0;0;0.21
HONRUBIA DE LA CUESTA;99;SEGOVIA;40;40099;49;VALLE DEL RIO RIAZA;;;-3.704685;41.510916;441194.7;4595715.79;41.510916, -3.704685;0;0;0;0.25
HONTALBILLA;100;SEGOVIA;40;40100;299;COMARCA DE LA CHURRERIA,PINARES;;;-4.121548;41.345883;406170.1;4577761.22;41.345883, -4.121548;0;0;0;0.18
ITUERO Y LAMA;104;SEGOVIA;40;40104;448;INTERPROVINCIAL CASTELLANA;;;-4.377497;40.800284;383799.79;4517499.9;40.800284, -4.377497;0;0;0;0.14
LA MATILLA;125;SEGOVIA;40;40125;71;;;;-3.794884;41.191127;433342.2;4560278.89;41.191127, -3.794884;0;0;0;0.17
LASTRAS DE CUÉLLAR;110;SEGOVIA;40;40110;307;PINARES;;;-4.10659;41.296819;407352.1;4572298.13;41.296819, -4.10659;0;0;0;0.17
MARTÍN MIGUEL;119;SEGOVIA;40;40119;263;ZORITA MANZO;;;-4.272816;40.950489;392872.93;4534040.88;40.950489, -4.272816;0;0;0;0.1
MATA DE CUÉLLAR;124;SEGOVIA;40;40124;207;CEGA,RIO ERESMA;;;-4.47219;41.398668;376933.87;4584060.17;41.398668, -4.47219;0;0;0;0.22
MEMBIBRE DE LA HOZ;127;SEGOVIA;40;40127;43;COMARCA DE LA CHURRERIA;;;-4.098739;41.448015;408222.17;4589075.44;41.448015, -4.098739;0;0;0;0.21
MIGUELÁÑEZ;128;SEGOVIA;40;40128;138;RIBERAS DEL VOLTOYA;;;-4.363718;41.12233;385520.05;4553233.09;41.12233, -4.363718;0;0;0;0.14
ADANERO;1;ÁVILA;5;5001;208;COMARCA DE LA MORAÑA,RIBERA DEL ADAJA;;;-4.603775;40.944236;365003.9;4533805.03;40.944236, -4.603775;0;0;0;0.15
AREVALILLO;15;ÁVILA;5;5015;58;SIERRA DE ÁVILA;;;-5.371997;40.587063;299262.67;4495623.02;40.587063, -5.371997;0;0;0;0.84
BARROMÁN;23;ÁVILA;5;5023;175;COMARCA DE LA MORAÑA,COMARCA DE MADRIGAL DE LAS ALTAS TORRES;;;-4.931357;41.06568;337726.98;4547845.26;41.06568, -4.931357;0;0;0;0.2
BERNUY-ZAPARDIEL;29;ÁVILA;5;5029;84;COMARCA DE LA MORAÑA,TIERRAS DE MORAÑA;;;-4.943348;40.976025;336497.81;4537914.22;40.976025, -4.943348;0;0;0;0.17
BERROCALEJO DE ARAGONA;30;ÁVILA;5;5030;56;;;;-4.592236;40.699531;365481.62;4506621.98;40.699531, -4.592236;0;0;0;0.1
GOTARRENDURA;87;ÁVILA;5;5087;167;COMARCA DE LA MORAÑA,RIBERA DEL ADAJA;;;-4.739094;40.827136;353354.72;4521023.05;40.827136, -4.739094;0;0;0;0.12
GRANDES Y SAN MARTÍN;88;ÁVILA;5;5088;32;SIERRA DE AVILA-ESTE;;;-4.958777;40.755002;334650.55;4513406.13;40.755002, -4.958777;0;0;0;0.13
HERREROS DE SUSO;94;ÁVILA;5;5094;140;COMARCA DE LA MORAÑA,TIERRAS DE MORAÑA;;;-5.038494;40.802534;328043.56;4518836.14;40.802534, -5.038494;0;0;0;0.15
LA ADRADA;2;ÁVILA;5;5002;2796;ALTO TIÉTAR;;;-4.63746;40.301364;360840.16;4462492.93;40.301364, -4.63746;0;0;0;0.8
MANCERA DE ARRIBA;118;ÁVILA;5;5118;70;TIERRAS DE MORAÑA;;;-5.148302;40.790929;318748.54;4517769.13;40.790929, -5.148302;0;0;0;0.17
MANJABÁLAGO Y ORTIGOSA DE RIOALMAR;119;ÁVILA;5;5119;26;AGUAS DE LA PRESA DE GAMONAL;;;-5.077413;40.665623;324400.51;4503714.04;40.665623, -5.077413;0;0;0;0.15
MARTÍNEZ;122;ÁVILA;5;5122;108;SIERRA DE ÁVILA;;;-5.34692;40.630813;301514.65;4500423.01;40.630813, -5.34692;0;0;0;0.21
MIJARES;127;ÁVILA;5;5127;731;VALLE DEL TIÉTAR;;;-4.838469;40.297768;343748.18;4462429.01;40.297768, -4.838469;0;0;0;0.8
MIRONCILLO;130;ÁVILA;5;5130;112;VALLE DE AMBLÉS;;;-4.825349;40.554959;345453.38;4490956.09;40.554959, -4.825349;0;0;0;0.74
MONSALUPE;133;ÁVILA;5;5133;59;RIBERA DEL ADAJA;;;-4.781304;40.769202;349664.62;4514663.08;40.769202, -4.781304;0;0;0;0.11
MUÑOGALINDO;138;ÁVILA;5;5138;300;VALLE DE AMBLÉS;;;-4.901397;40.603862;339131.44;4496521.12;40.603862, -4.901397;0;0;0;0.11
MUÑOMER DEL PECO;140;ÁVILA;5;5140;111;COMARCA DE LA MORAÑA,TIERRAS DE MORAÑA;;;-4.880465;40.859571;341510.67;4524870.14;40.859571, -4.880465;0;0;0;0.14
NARRILLOS DEL ÁLAMO;144;ÁVILA;5;5144;59;SIERRA DE ÁVILA;;;-5.466694;40.567055;291185.65;4493622.11;40.567055, -5.466694;0;0;0;0.86
NAVALACRUZ;157;ÁVILA;5;5157;204;ALBERCHE;;;-4.932213;40.439978;336125.32;4478385.01;40.439978, -4.932213;0;0;0;0.78
NAVALOSA;160;ÁVILA;5;5160;324;ALBERCHE;;;-4.931181;40.401826;336120.29;4474148.0;40.401826, -4.931181;0;0;0;0.78
NAVALPERAL DE PINARES;161;ÁVILA;5;5161;826;CASAGRANDE;;;-4.409132;40.594486;380764.6;4494696.94;40.594486, -4.409132;0;0;0;0.76
NAVAQUESERA;164;ÁVILA;5;5164;43;ALBERCHE;;;-4.908764;40.425026;338078.3;4476682.02;40.425026, -4.908764;0;0;0;0.78
NIHARRA;172;ÁVILA;5;5172;183;VALLE DE AMBLÉS;;;-4.839461;40.588588;344336.41;4494714.1;40.588588, -4.839461;0;0;0;0.73
ORBITA;174;ÁVILA;5;5174;69;COMARCA DE LA MORAÑA,RIBERA DEL ADAJA;;;-4.647247;40.998381;361457.95;4539884.09;40.998381, -4.647247;0;0;0;0.17
PADIERNOS;176;ÁVILA;5;5176;275;VALLE DE AMBLÉS;;;-4.844785;40.621932;343963.44;4498425.1;40.621932, -4.844785;0;0;0;0.1
PAJARES DE ADAJA;177;ÁVILA;5;5177;127;RIBERA DEL ADAJA;;;-4.640356;40.923697;361881.88;4531582.03;40.923697, -4.640356;0;0;0;0.15
PIEDRAHÍTA;186;ÁVILA;5;5186;1637;AGUAS DE PIEDRAHITA-MALPARTIDA DE CORNEJA,BARCO Y PIEDRAHÍTA;;;-5.32792;40.463777;302631.67;4481836.88;40.463777, -5.32792;0;0;0;0.84
RIOFRÍO;195;ÁVILA;5;5195;191;VALLE DE AMBLÉS;;;-4.777999;40.547284;349445.36;4490022.07;40.547284, -4.777999;0;0;0;0.73
SAN BARTOLOMÉ DE PINARES;201;ÁVILA;5;5201;489;AGUAS PRESA DE SANTA CRUZ DE PINARES,CASAGRANDE,PINARES DE AVILA;;;-4.540079;40.543187;369584.44;4489187.96;40.543187, -4.540079;0;0;0;0.74
SAN GARCÍA DE INGELMOS;209;ÁVILA;5;5209;66;AGUAS DE LA PRESA DE GAMONAL;;;-5.11618;40.769932;321402.53;4515372.11;40.769932, -5.11618;0;0;0;0.16
SAN MIGUEL DE SERREZUELA;218;ÁVILA;5;5218;106;SIERRA DE ÁVILA;;;-5.288092;40.670366;306604.62;4504683.01;40.670366, -5.288092;0;0;0;0.19
SAN PEDRO DEL ARROYO;220;ÁVILA;5;5220;501;COMARCA DE LA MORAÑA,TIERRAS DE MORAÑA;;;-4.867618;40.805112;342464.61;4518801.13;40.805112, -4.867618;0;0;0;0.13
SANTA CRUZ DE PINARES;222;ÁVILA;5;5222;170;AGUAS PRESA DE SANTA CRUZ DE PINARES,CASAGRANDE,PINARES DE AVILA;;;-4.579379;40.542215;366254.41;4489138.97;40.542215, -4.579379;0;0;0;0.74
SANTA MARÍA DEL BERROCAL;225;ÁVILA;5;5225;382;AGUAS DEL TORMES,BERROCAL-LA HORCAJADA;;;-5.406048;40.509532;296145.68;4487094.04;40.509532, -5.406048;0;0;0;0.85
SANTIAGO DEL COLLADO;228;ÁVILA;5;5228;162;BARCO Y PIEDRAHÍTA;;;-5.356583;40.433561;300111.68;4478546.93;40.433561, -5.356583;0;0;0;0.85
SANTO DOMINGO DE LAS POSADAS;229;ÁVILA;5;5229;69;RIBERA DEL ADAJA;;;-4.633024;40.812408;362268.75;4519215.99;40.812408, -4.633024;0;0;0;0.12
SOLANA DE ÁVILA;236;ÁVILA;5;5236;100;BARCO Y PIEDRAHÍTA;;;-5.614766;40.314719;277819.7;4465970.16;40.314719, -5.614766;0;0;0;0.91
SOTILLO DE LA ADRADA;240;ÁVILA;5;5240;5003;ALTO TIÉTAR,CAÑADA REAL;;;-4.580612;40.292542;365654.18;4461425.9;40.292542, -4.580612;0;0;0;0.8
TOLBAÑOS;243;ÁVILA;5;5243;86;RIBERA DEL ADAJA;;;-4.581197;40.751776;366518.69;4512404.97;40.751776, -4.581197;0;0;0;0.11
VALDECASA;252;ÁVILA;5;5252;56;SIERRA DE AVILA-ESTE;;;-5.011577;40.659187;329949.49;4502870.09;40.659187, -5.011577;0;0;0;0.14
VITA;265;ÁVILA;5;5265;71;COMARCA DE LA MORAÑA,TIERRAS DE MORAÑA;;;-5.005955;40.812382;330813.58;4519866.15;40.812382, -5.005955;0;0;0;0.15
AGUILAR DE BUREBA;7;BURGOS;9;9007;50;;;;-3.328516;42.590132;473045.87;4715353.58;42.590132, -3.328516;0;0;0;0.17
ALFOZ DE SANTA GADEA;12;BURGOS;9;9012;101;NOROESTE DE BURGOS;HIGÓN,QUINTANILLA SANTA GADEA,SANTA GADEA DE ALFOZ;;-3.952068;42.955776;422342.63;4756343.49;42.955776, -3.952068;0;0;0;0.88
ANGUIX;17;BURGOS;9;9017;156;RIBERA DEL DUERO-COMARCA DE ROA,RUTA DEL VINO-AFLUENTE RURAL;;;-3.931087;41.752741;422591.41;4622742.82;41.752741, -3.931087;0;0;0;0.24
ARIJA;25;BURGOS;9;9025;115;NOROESTE DE BURGOS;;;-3.944988;42.993881;422967.71;4760568.5;42.993881, -3.944988;0;0;0;0.89
ARRAYA DE OCA;27;BURGOS;9;9027;53;OCA-TIRÓN;;;-3.398138;42.415773;467242.64;4696017.5;42.415773, -3.398138;0;0;0;0.14
BAHABÓN DE ESGUEVA;33;BURGOS;9;9033;84;RIBERA DEL DUERO-COMARCA DE ROA;;;-3.728434;41.861384;439541.93;4634642.51;41.861384, -3.728434;0;0;0;0.2
BAÑOS DE VALDEARADOS;35;BURGOS;9;9035;318;RIO ARANDILLA;;;-3.556407;41.771227;453754.93;4624525.88;41.771227, -3.556407;0;0;0;0.23
BARBADILLO DE HERREROS;37;BURGOS;9;9037;104;ALFOZ DE LARA,CAMINO NATURAL VÍA VERDE DE LA SIERRA DE LA DEMANDA;;;-3.1771;42.149517;485367.37;4666392.3;42.149517, -3.1771;0;0;0;0.19
BARRIOS DE COLINA;44;BURGOS;9;9044;55;COMARCA DEL ARLANZÓN,RIOS ARLANZON Y VENA;BARRIOS DE COLINA,HINIESTRA,SAN JUAN DE ORTEGA;;-3.461802;42.395947;461992.59;4693842.53;42.395947, -3.461802;0;0;0;0.12
BASCUÑANA;46;BURGOS;9;9046;18;LA RIOJILLA BURGALESA,OCA-TIRÓN;SAN PEDRO DEL MONTE;;-3.082748;42.424312;493192.73;4696892.15;42.424312, -3.082748;0;0;0;0.2
BRAZACORTA;55;BURGOS;9;9055;45;RIO ARANDILLA;;;-3.367476;41.717094;469432.07;4618431.47;41.717094, -3.367476;0;0;0;0.26
CABAÑES DE ESGUEVA;61;BURGOS;9;9061;149;RIBERA DEL DUERO-COMARCA DE ROA;;;-3.784695;41.831291;434841.81;4631342.57;41.831291, -3.784695;0;0;0;0.21
CARCEDO DE BURGOS;72;BURGOS;9;9072;484;RIBERA DEL RIO AUSIN Y ZONA DE SAN PEDRO DE CARDEÑA;MODÚBAR DE LA CUESTA;;-3.622927;42.286212;448642.39;4681742.66;42.286212, -3.622927;0;0;0;0.09
CARRIAS;76;BURGOS;9;9076;24;LAS LOMAS DE BUREBA,OCA-TIRÓN;;;-3.284185;42.48163;476642.74;4703292.45;42.48163, -3.284185;0;0;0;0.16
CASTILDELGADO;82;BURGOS;9;9082;28;LA RIOJILLA BURGALESA,OCA-TIRÓN;;;-3.085195;42.436243;492992.73;4698217.16;42.436243, -3.085195;0;0;0;0.2
CASTRILLO MOTA DE JUDÍOS;90;BURGOS;9;9090;52;PEÑA AMAYA;;;-4.172776;42.307578;403342.0;4684593.14;42.307578, -4.172776;0;0;0;0.17
CILLERUELO DE ABAJO;103;BURGOS;9;9103;209;RIBERA DEL ARLANZA Y DEL MONTE;;;-3.794648;41.884436;434069.97;4637250.66;41.884436, -3.794648;0;0;0;0.2
COVARRUBIAS;113;BURGOS;9;9113;505;RIBERA DEL ARLANZA Y DEL MONTE;URA;;-3.518868;42.057516;457067.24;4656292.44;42.057516, -3.518868;0;0;0;0.16
CUEVAS DE SAN CLEMENTE;119;BURGOS;9;9119;45;RIBERA DEL ARLANZA Y DEL MONTE;;;-3.568761;42.129783;452992.29;4664342.58;42.129783, -3.568761;0;0;0;0.13
FRESNEDA DE LA SIERRA TIRÓN;129;BURGOS;9;9129;97;SIERRA DE LA DEMANDA;;;-3.136604;42.314386;488742.64;4684692.19;42.314386, -3.136604;0;0;0;0.19
FRESNO DE RÍO TIRÓN;132;BURGOS;9;9132;160;OCA-TIRÓN;;;-3.175839;42.459782;485542.75;4700842.3;42.459782, -3.175839;0;0;0;0.18
FUENTELCÉSPED;137;BURGOS;9;9137;273;VALLE DEL RIO RIAZA;;;-3.640806;41.591514;446591.78;4604622.34;41.591514, -3.640806;0;0;0;0.28
FUENTESPINA;141;BURGOS;9;9141;816;VALLE DEL RIO RIAZA;;;-3.683701;41.631349;443051.7;4609072.4;41.631349, -3.683701;0;0;0;0.27
GRISALEÑA;149;BURGOS;9;9149;53;;;;-3.264364;42.591522;478309.89;4715489.53;42.591522, -3.264364;0;0;0;0.18
HACINAS;154;BURGOS;9;9154;149;ALFOZ DE LARA;;;-3.287554;41.985985;476180.22;4648260.09;41.985985, -3.287554;0;0;0;0.2
HONTORIA DE VALDEARADOS;164;BURGOS;9;9164;164;RIO ARANDILLA;;;-3.520242;41.743167;456741.95;4621391.76;41.743167, -3.520242;0;0;0;0.24
HORNILLOS DEL CAMINO;167;BURGOS;9;9167;46;CAMPOS DE MUÑÓ,PUEBLOS DE LA VECINDAD DE BURGOS;;;-3.926326;42.339102;423692.21;4687842.91;42.339102, -3.926326;0;0;0;0.12
HUERTA DE REY;174;BURGOS;9;9174;881;ALFOZ DE LARA;HINOJAR DEL REY,PEÑALBA DE CASTRO,QUINTANARRAYA;;-3.348187;41.840641;471092.14;4632141.66;41.840641, -3.348187;0;0;0;0.23
IBEAS DE JUARROS;177;BURGOS;9;9177;1445;COMARCA DEL ARLANZÓN;CUEVA DE JUARROS,CUZCURRITA DE JUARROS,ESPINOSA DE JUARROS,MODÚBAR DE SAN CIBRIÁN,MOZONCILLO DE JUARROS,SALGÜERO DE JUARROS,SAN MILLÁN DE JUARROS,SANTA CRUZ DE JUARROS;;-3.536577;42.330328;455792.49;4686592.57;42.330328, -3.536577;0;0;0;0.1
LA HORRA;168;BURGOS;9;9168;303;RIBERA DEL DUERO-COMARCA DE ROA,RUTA DEL VINO-AFLUENTE RURAL;;;-3.873493;41.741033;427366.45;4621392.74;41.741033, -3.873493;0;0;0;0.24
LA PUEBLA DE ARGANZÓN;276;BURGOS;9;9276;557;;;;-2.83136;42.766841;513797.4;4734937.22;42.766841, -2.83136;0;0;0;0.84
LA VID Y BARRIOS;421;BURGOS;9;9421;245;RIO ARANDILLA;GUMA,LINARES DE LA VID;;-3.487962;41.628684;459354.0;4608665.78;41.628684, -3.487962;0;0;0;0.27
LERMA;194;BURGOS;9;9194;2556;VIRGEN DE MANCILES;CASTRILLO-SOLARANA,RABÉ DE LOS ESCUDEROS,REVILLA-CABRIADA,RUYALES DEL AGUA,SANTILLÁN DEL AGUA,VILLOVIADO;;-3.759314;42.02736;437142.19;4653092.84;42.02736, -3.759314;0;0;0;0.16
LOS AUSINES;30;BURGOS;9;9030;165;COMARCA DEL ARLANZÓN;CUBILLO DEL CÉSAR;;-3.591431;42.225586;451192.36;4674992.62;42.225586, -3.591431;0;0;0;0.11
MAHAMUD;198;BURGOS;9;9198;105;BAJO ARLANZA,CAMPOS DE MUÑÓ;;;-3.941882;42.120352;422142.34;4663568.13;42.120352, -3.941882;0;0;0;0.15
MERINDAD DE CUESTA-URRIA;213;BURGOS;9;9213;270;COMARCA DEL EBRO-NELA;BAÍLLO,CEBOLLEROS,EXTRAMIANA,MIJANGOS,PARALACUESTA,QUINTANALACUESTA,QUINTANILLA-MONTECABEZAS,SAN CRISTÓBAL DE ALMENDRES,URRIA,VILLAPANILLO,VILLAVEDEO;;-3.418599;42.841895;465793.31;4743342.67;42.841895, -3.418599;0;0;0;0.85
MERINDAD DE MONTIJA;214;BURGOS;9;9214;736;NORTE TRUEBA JEREA;AGÜERA,BARANDA,BÁRCENA DE PIENZA,BARCENILLAS DEL RIVERO,BERCEDO,GAYANGOS,HEDESA,LOMA DE MONTIJA,NOCECO,QUINTANILLA DE PIENZA,QUINTANILLA SOPEÑA,REVILLA DE PIENZA,SAN PELAYO,VILLALÁZARA,VILLASANTE;;-3.470112;43.067273;461723.76;4768392.62;43.067273, -3.470112;0;0;0;0.91
MERINDAD DE RÍO UBIERNA;906;BURGOS;9;9906;1411;TIERRAS DEL CID;CASTRILLO DE RUCIOS,CELADILLA-SOTOBRÍN,CERNÉGULA,GREDILLA LA POLERA,HONTOMÍN,LA MOLINA DE UBIERNA,LERMILLA,MASA,PEÑAHORADA,QUINTANARRUZ,QUINTANILLA SOBRESIERRA,UBIERNA,VILLALBILLA SOBRESIERRA,VILLANUEVA DE RÍO UBIERNA,VILLAVERDE-PEÑAHORADA;;-3.680833;42.437085;444002.46;4698531.67;42.437085, -3.680833;0;0;0;0.1
MONCALVILLO;225;BURGOS;9;9225;76;;;;-3.199486;41.954034;483467.14;4644691.96;41.954034, -3.199486;0;0;0;0.22
MONTERRUBIO DE LA DEMANDA;226;BURGOS;9;9226;56;ALFOZ DE LARA,CAMINO NATURAL VÍA VERDE DE LA SIERRA DE LA DEMANDA;;;-3.112652;42.149598;490692.32;4666392.29;42.149598, -3.112652;0;0;0;0.2
NAVA DE ROA;229;BURGOS;9;9229;199;RIBERA DEL DUERO-COMARCA DE ROA;;;-3.963636;41.612643;419711.32;4607218.31;41.612643, -3.963636;0;0;0;0.28
OQUILLAS;239;BURGOS;9;9239;49;LA YECLA;;;-3.706049;41.830809;441371.87;4631232.39;41.830809, -3.706049;0;0;0;0.21
PEDROSA DEL PÁRAMO;257;BURGOS;9;9257;89;PEÑA AMAYA;;;-3.976085;42.439456;419721.23;4699031.91;42.439456, -3.976085;0;0;0;0.13
PUENTEDURA;277;BURGOS;9;9277;122;RIBERA DEL ARLANZA Y DEL MONTE;;;-3.582175;42.041902;451817.21;4654592.51;42.041902, -3.582175;0;0;0;0.16
QUINTANABUREBA;280;BURGOS;9;9280;31;;;;-3.366316;42.586767;469942.84;4714992.61;42.586767, -3.366316;0;0;0;0.17
RÁBANOS;303;BURGOS;9;9303;79;SIERRA DE LA DEMANDA;ALARCIA,RÁBANOS,VILLAMUDRIA;;-3.269499;42.319106;477792.62;4685242.33;42.319106, -3.269499;0;0;0;0.16
ROJAS;323;BURGOS;9;9323;60;OÑA-BUREBA-CADERECHAS-VALDIVIELSO (OBURCAVAL);QUINTANILLA CABERROJAS,ROJAS;;-3.442423;42.5776;463692.79;4714004.62;42.5776, -3.442423;0;0;0;0.15
ALBORNOS;5;ÁVILA;5;5005;175;COMARCA DE LA MORAÑA,TIERRAS DE MORAÑA;;;-4.886271;40.835453;340963.64;4522203.14;40.835453, -4.886271;0;0;0;0.13
CABIZUELA;45;ÁVILA;5;5045;88;COMARCA DE LA MORAÑA,TIERRAS DE MORAÑA;;;-4.801294;40.90119;348278.76;4529350.12;40.90119, -4.801294;0;0;0;0.14
CANALES;46;ÁVILA;5;5046;35;AGUA LOS ARENALES,COMARCA DE LA MORAÑA,TIERRAS DE MORAÑA;;;-4.901173;41.003967;340113.88;4540938.23;41.003967, -4.901173;0;0;0;0.18
CASAVIEJA;54;ÁVILA;5;5054;1394;VALLE DEL TIÉTAR;;;-4.765808;40.279297;349883.14;4460252.99;40.279297, -4.765808;0;0;0;0.8
CEBREROS;57;ÁVILA;5;5057;3239;CASAGRANDE,PINARES DE AVILA;;;-4.464399;40.454779;375830.38;4479264.91;40.454779, -4.464399;0;0;0;0.77
COLLADO DE CONTRERAS;62;ÁVILA;5;5062;145;COMARCA DE LA MORAÑA,TIERRAS DE MORAÑA;;;-4.930021;40.88773;337402.68;4528087.18;40.88773, -4.930021;0;0;0;0.15
CONSTANZANA;64;ÁVILA;5;5064;99;COMARCA DE LA MORAÑA,TIERRAS DE MORAÑA;;;-4.874063;40.938421;342237.77;4533612.18;40.938421, -4.874063;0;0;0;0.16
EL ARENAL;13;ÁVILA;5;5013;978;BAJO TIETAR,LOS GALAYOS;;;-5.086854;40.265212;322551.34;4459282.98;40.265212, -5.086854;0;0;0;0.83
EL LOSAR DEL BARCO;112;ÁVILA;5;5112;63;BARCO Y PIEDRAHÍTA;;;-5.539015;40.392406;284504.69;4474407.11;40.392406, -5.539015;0;0;0;0.89
EL MIRÓN;129;ÁVILA;5;5129;98;AGUAS DEL TORMES,SIERRA DE ÁVILA;;;-5.405187;40.531673;296285.68;4489550.04;40.531673, -5.405187;0;0;0;0.85
FUENTES DE AÑO;78;ÁVILA;5;5078;88;AGUA LOS ARENALES,COMARCA DE LA MORAÑA,TIERRAS DE MORAÑA;;;-4.898007;41.017549;340412.91;4542440.22;41.017549, -4.898007;0;0;0;0.18
GALLEGOS DE ALTAMIROS;79;ÁVILA;5;5079;60;SIERRA DE AVILA-ESTE;;;-4.89866;40.709599;339616.52;4508254.13;40.709599, -4.89866;0;0;0;0.12
GIL GARCÍA;85;ÁVILA;5;5085;47;BARCO Y PIEDRAHÍTA;;;-5.59615;40.297222;279344.71;4463981.17;40.297222, -5.59615;0;0;0;0.91
GUISANDO;89;ÁVILA;5;5089;474;BAJO TIETAR,LOS GALAYOS;;;-5.140112;40.221963;317906.39;4454590.04;40.221963, -5.140112;0;0;0;0.85
GUTIERRE-MUÑOZ;90;ÁVILA;5;5090;64;COMARCA DE LA MORAÑA,RIBERA DEL ADAJA;;;-4.636491;40.982699;362329.94;4538126.07;40.982699, -4.636491;0;0;0;0.16
LA HIJA DE DIOS;96;ÁVILA;5;5096;75;VALLE DE AMBLÉS;;;-4.972665;40.533872;332927.42;4488884.06;40.533872, -4.972665;0;0;0;0.77
LA HORCAJADA;97;ÁVILA;5;5097;457;BERROCAL-LA HORCAJADA;;;-5.466432;40.435305;290798.68;4478995.1;40.435305, -5.466432;0;0;0;0.87
MARTIHERRERO;121;ÁVILA;5;5121;361;VALLE DE AMBLÉS;;;-4.781796;40.673934;349408.51;4504088.08;40.673934, -4.781796;0;0;0;0.09
MESEGAR DE CORNEJA;126;ÁVILA;5;5126;66;BARCO Y PIEDRAHÍTA;;;-5.301507;40.501572;304980.66;4485973.85;40.501572, -5.301507;0;0;0;0.83
MINGORRÍA;128;ÁVILA;5;5128;410;RIBERA DEL ADAJA;;;-4.665175;40.751028;359427.66;4512453.01;40.751028, -4.665175;0;0;0;0.1
MIRUEÑA DE LOS INFANZONES;131;ÁVILA;5;5131;95;AGUAS DE LA PRESA DE GAMONAL;;;-5.093717;40.737499;323212.52;4511726.09;40.737499, -5.093717;0;0;0;0.16
MUÑANA;135;ÁVILA;5;5135;502;VALLE DE AMBLÉS;;;-5.014648;40.590961;329516.47;4495302.05;40.590961, -5.014648;0;0;0;0.77
MUÑOGRANDE;139;ÁVILA;5;5139;74;TIERRAS DE MORAÑA;;;-4.921427;40.821577;337965.62;4520727.15;40.821577, -4.921427;0;0;0;0.14
MUÑOSANCHO;142;ÁVILA;5;5142;88;COMARCA DE LA MORAÑA,TIERRAS DE MORAÑA;;;-5.035046;40.921973;328642.68;4532089.21;40.921973, -5.035046;0;0;0;0.17
MUÑOTELLO;143;ÁVILA;5;5143;49;VALLE DE AMBLÉS;;;-5.040689;40.542697;327188.46;4489994.97;40.542697, -5.040689;0;0;0;0.78
NAVALPERAL DE TORMES;162;ÁVILA;5;5162;77;SIERRA DE GREDOS-CENTRAL;;;-5.30008;40.352879;304671.63;4469463.87;40.352879, -5.30008;0;0;0;0.85
NAVALUENGA;163;ÁVILA;5;5163;2172;AGUAS DE EL BURGUILLO,SERVICIOS ALBERCHE-BURGUILLO;;;-4.708148;40.412733;355071.21;4474968.99;40.412733, -4.708148;0;0;0;0.77
NAVATALGORDO;169;ÁVILA;5;5169;237;ALBERCHE;;;-4.869799;40.415394;341361.26;4475542.03;40.415394, -4.869799;0;0;0;0.77
NEILA DE SAN MIGUEL;171;ÁVILA;5;5171;62;BARCO Y PIEDRAHÍTA;;;-5.651008;40.424615;275105.66;4478262.11;40.424615, -5.651008;0;0;0;0.91
PASCUALCOBO;181;ÁVILA;5;5181;39;SIERRA DE ÁVILA;;;-5.277265;40.655339;307476.62;4502990.99;40.655339, -5.277265;0;0;0;0.19
RIVILLA DE BARAJAS;196;ÁVILA;5;5196;56;COMARCA DE LA MORAÑA,TIERRAS DE MORAÑA;;;-4.987756;40.901297;332572.68;4529702.19;40.901297, -4.987756;0;0;0;0.16
SAN JUAN DEL OLMO;213;ÁVILA;5;5213;81;AGUAS DE LA PRESA DE GAMONAL,SIERRA DE AVILA-ESTE;;;-5.05025;40.653173;326664.49;4502278.05;40.653173, -5.05025;0;0;0;0.14
SANCHORREJA;205;ÁVILA;5;5205;79;SIERRA DE AVILA-ESTE;;;-4.914851;40.664841;338140.48;4503315.12;40.664841, -4.914851;0;0;0;0.12
SANTA MARÍA DEL CUBILLO;902;ÁVILA;5;5902;322;INTERPROVINCIAL CASTELLANA;;;-4.472778;40.742212;375653.72;4511183.93;40.742212, -4.472778;0;0;0;0.12
SANTO TOMÉ DE ZABARCOS;230;ÁVILA;5;5230;71;TIERRAS DE MORAÑA;;;-4.910307;40.787784;338821.59;4516955.14;40.787784, -4.910307;0;0;0;0.13
SOLANA DE RIOALMAR;237;ÁVILA;5;5237;138;AGUAS DE LA PRESA DE GAMONAL,SIERRA DE AVILA-ESTE;;;-5.010111;40.737923;330273.53;4511608.12;40.737923, -5.010111;0;0;0;0.14
TORMELLAS;244;ÁVILA;5;5244;35;BARCO Y PIEDRAHÍTA;;;-5.509627;40.304933;286723.7;4464625.18;40.304933, -5.509627;0;0;0;0.9
VILLAFRANCA DE LA SIERRA;257;ÁVILA;5;5257;134;BARCO Y PIEDRAHÍTA;;;-5.229974;40.497326;311030.62;4485346.75;40.497326, -5.229974;0;0;0;0.82
ALBILLOS;9;BURGOS;9;9009;214;CAMPOS DE MUÑÓ,RIBERA DEL RIO AUSIN Y ZONA DE SAN PEDRO DE CARDEÑA;;;-3.791095;42.276171;434767.27;4680742.83;42.276171, -3.791095;0;0;0;0.1
AMEYUGO;16;BURGOS;9;9016;108;DESFILADERO Y BUREBA;;;-3.061089;42.656227;494993.09;4722642.37;42.656227, -3.061089;0;0;0;0.23
ARANDA DE DUERO;18;BURGOS;9;9018;33757;RUTA DEL VINO-AFLUENTE RURAL;LA AGUILERA;;-3.689244;41.67155;442625.69;4613539.34;41.67155, -3.689244;0;1;0;0.26
ARAUZO DE SALCE;21;BURGOS;9;9021;46;ALFOZ DE LARA;;;-3.41129;41.819942;465842.09;4629866.65;41.819942, -3.41129;0;0;0;0.23
ATAPUERCA;29;BURGOS;9;9029;180;COMARCA DEL ARLANZÓN,ENCUENTRO DE CAMINOS: SIERRA DE ATAPUERCA,CAMINO DE SANTIAGO Y VÍA ROMANA,RIOS ARLANZON Y VENA;OLMOS DE ATAPUERCA;;-3.507224;42.378193;458242.54;4691892.55;42.378193, -3.507224;0;0;0;0.11
BASCONCILLOS DEL TOZO;45;BURGOS;9;9045;294;PARAMOS Y VALLES;ARCELLARES DEL TOZO,BARRIO PANIZARES,BASCONCILLOS DEL TOZO,FUENTE URBEL,HOYOS DEL TOZO,LA PIEDRA,LA RAD,PRÁDANOS DEL TOZO,SAN MAMÉS DE ABAR,SANTA CRUZ DEL TOZO,TALAMILLO DEL TOZO,TRASHAEDO DEL TOZO;;-3.990265;42.701617;418895.29;4728156.14;42.701617, -3.990265;0;0;0;0.19
BELORADO;48;BURGOS;9;9048;1834;LAS LOMAS DE BUREBA,OCA-TIRÓN;ETERNA,PURAS DE VILLAFRANCA,QUINTANALORANCO;;-3.189708;42.420584;484392.71;4696492.28;42.420584, -3.189708;0;0;0;0.18
BOZOÓ;54;BURGOS;9;9054;102;DESFILADERO Y BUREBA;BOZOÓ,PORTILLA,VILLANUEVA SOPORTILLA;;-3.085279;42.726249;493018.25;4730419.47;42.726249, -3.085279;0;0;0;0.24
BRIVIESCA;56;BURGOS;9;9056;6560;;REVILLAGODOS,VALDAZO;;-3.323904;42.54898;473406.79;4710782.56;42.54898, -3.323904;0;0;0;0.17
CAMPOLARA;66;BURGOS;9;9066;48;RIBERA DEL ARLANZA Y DEL MONTE;;;-3.427732;42.119136;464642.35;4663092.43;42.119136, -3.427732;0;0;0;0.15
CARAZO;70;BURGOS;9;9070;39;ALFOZ DE LARA;;;-3.356685;41.967561;470445.21;4646236.07;41.967561, -3.356685;0;0;0;0.2
CASTIL DE PEONES;83;BURGOS;9;9083;35;;;;-3.385787;42.48291;468292.7;4703467.54;42.48291, -3.385787;0;0;0;0.15
CASTRILLO DE LA REINA;84;BURGOS;9;9084;158;ALTA SIERRA DE PINARES;;;-3.236529;41.986884;480407.19;4648347.07;41.986884, -3.236529;0;0;0;0.21
CASTRILLO DE RIOPISUERGA;88;BURGOS;9;9088;58;BOEDO-OJEDA;HINOJAL DE RIOPISUERGA;;-4.253352;42.515748;397042.0;4707802.77;42.515748, -4.253352;0;0;0;0.19
CELADA DEL CAMINO;95;BURGOS;9;9095;90;CAMPOS DE MUÑÓ,PUEBLOS DE LA VECINDAD DE BURGOS;;;-3.934014;42.263839;422967.2;4679492.94;42.263839, -3.934014;0;0;0;0.12
CILLERUELO DE ARRIBA;104;BURGOS;9;9104;49;LA YECLA;;;-3.661674;41.904822;445120.04;4639420.42;41.904822, -3.661674;0;0;0;0.19
CONDADO DE TREVIÑO;109;BURGOS;9;9109;1489;;AGUILLO,ALBAINA,AÑASTRO,ARGOTE,ARMENTIA,ARRIETA,ASCARZA,BAJAURI,BURGUETA,BUSTO DE TREVIÑO,CUCHO,DORDONIZ,DOROÑO,FRANCO,FUIDIO,GOLERNIO,GRANDIVAL,IMIRURI,LAÑO,MARAURI,MUERGAS,OBECURI,OCILLA Y LADRERA,OGUETA,OZANA,PANGUA,PARIZA,SAMIANO,SAN MARTÍN ZAR,SAN VICENTEJO,SARASO,TARAVERO,TORRE,TREVIÑO,UZQUIANO,VILLANUEVA TOBERA;;-2.747459;42.735329;520672.32;4731455.11;42.735329, -2.747459;0;0;0;0.85
CUBO DE BUREBA;115;BURGOS;9;9115;101;DESFILADERO Y BUREBA;;;-3.207594;42.640333;482981.01;4720896.51;42.640333, -3.207594;0;0;0;0.2
ESPINOSA DE LOS MONTEROS;124;BURGOS;9;9124;1648;;BÁRCENAS,LAS MACHORRAS,PARA,QUINTANA DE LOS PRADOS,SANTA OLALLA;;-3.552854;43.076359;454993.55;4769442.7;43.076359, -3.552854;0;0;0;0.91
ESTÉPAR;125;BURGOS;9;9125;634;CAMPOS DE MUÑÓ,PUEBLOS DE LA VECINDAD DE BURGOS;ARENILLAS DE MUÑÓ,ARROYO DE MUÑÓ,HORMAZA,MAZUELO DE MUÑÓ,MEDINILLA DE LA DEHESA,PEDROSA DE MUÑÓ,QUINTANILLA SOMUÑO,VILLAGUTIÉRREZ,VILLAVIEJA DE MUÑÓ,VILVIESTRE DE MUÑÓ;;-3.897513;42.276288;425992.21;4680842.89;42.276288, -3.897513;0;0;0;0.11
FRESNEÑA;130;BURGOS;9;9130;66;LA RIOJILLA BURGALESA,OCA-TIRÓN;FRESNEÑA,VILLAMAYOR DEL RÍO;;-3.134692;42.414131;488917.72;4695767.21;42.414131, -3.134692;0;0;0;0.19
FRESNILLO DE LAS DUEÑAS;131;BURGOS;9;9131;693;RIO ARANDILLA;;;-3.644482;41.647427;446331.76;4610832.22;41.647427, -3.644482;0;0;0;0.26
FUENTEBUREBA;135;BURGOS;9;9135;56;DESFILADERO Y BUREBA;CALZADA DE BUREBA;;-3.234478;42.633797;480774.98;4720176.53;42.633797, -3.234478;0;0;0;0.2
FUENTELISENDO;138;BURGOS;9;9138;99;RIBERA DEL DUERO-COMARCA DE ROA;;;-3.901042;41.623606;424939.33;4608379.1;41.623606, -3.901042;0;0;0;0.27
GALBARROS;143;BURGOS;9;9143;27;;AHEDO DE BUREBA,CABORREDONDO,GALBARROS,SAN PEDRO DE LA HOZ;;-3.43745;42.528457;464072.72;4708545.6;42.528457, -3.43745;0;0;0;0.15
HONTANGAS;160;BURGOS;9;9160;99;RIBERA DEL DUERO-COMARCA DE ROA;;;-3.796042;41.582757;433644.5;4603757.9;41.582757, -3.796042;0;0;0;0.28
HONTORIA DEL PINAR;163;BURGOS;9;9163;610;ALFOZ DE LARA;;;-3.164524;41.848031;486342.12;4632916.61;41.848031, -3.164524;0;0;0;0.25
HOYALES DE ROA;170;BURGOS;9;9170;212;RIBERA DEL DUERO-COMARCA DE ROA;;;-3.862192;41.659345;428215.38;4612313.89;41.659345, -3.862192;0;0;0;0.26
HUERTA DE ARRIBA;173;BURGOS;9;9173;128;ALFOZ DE LARA;;;-3.082353;42.11675;493192.22;4662742.3;42.11675, -3.082353;0;0;0;0.21
IGLESIARRUBIA;179;BURGOS;9;9179;45;RIBERA DEL ARLANZA Y DEL MONTE;;;-3.846552;41.974404;429862.18;4647280.89;41.974404, -3.846552;0;0;0;0.18
JUNTA DE VILLALBA DE LOSA;190;BURGOS;9;9190;78;NORTE TRUEBA JEREA;VILLALBA DE LOSA;;-3.087829;42.935379;492833.7;4753642.51;42.935379, -3.087829;0;0;0;0.91
LA REVILLA Y AHEDO;312;BURGOS;9;9312;101;ALFOZ DE LARA;;;-3.330408;42.013629;472642.25;4651342.19;42.013629, -3.330408;0;0;0;0.19
LAS QUINTANILLAS;297;BURGOS;9;9297;388;PUEBLOS DE LA VECINDAD DE BURGOS;;;-3.843807;42.372133;430526.3;4691439.84;42.372133, -3.843807;0;0;0;0.1
MAMBRILLAS DE LARA;200;BURGOS;9;9200;56;RIBERA DEL ARLANZA Y DEL MONTE;CUBILLEJO DE LARA,MAMBRILLAS DE LARA,QUINTANILLA DE LAS VIÑAS;;-3.45962;42.095596;461992.31;4660492.43;42.095596, -3.45962;0;0;0;0.15
MIRAVECHE;220;BURGOS;9;9220;95;DESFILADERO Y BUREBA;;;-3.200843;42.67318;483543.08;4724542.54;42.67318, -3.200843;0;0;0;0.21
MONTORIO;227;BURGOS;9;9227;149;TIERRAS DEL CID;;;-3.776397;42.584723;436292.45;4714992.72;42.584723, -3.776397;0;0;0;0.14
ORBANEJA RIOPICO;241;BURGOS;9;9241;350;COMARCA DEL ARLANZÓN;QUINTANILLA RIOPICO;;-3.585219;42.361152;451808.48;4690041.62;42.361152, -3.585219;0;0;0;0.09
PALAZUELOS DE MUÑÓ;249;BURGOS;9;9249;54;BAJO ARLANZA,CAMPOS DE MUÑÓ;;;-3.989669;42.198079;418292.24;4672243.09;42.198079, -3.989669;0;0;0;0.14
PARDILLA;253;BURGOS;9;9253;102;VALLE DEL RIO RIAZA;;;-3.71057;41.552556;440741.68;4600342.69;41.552556, -3.71057;0;0;0;0.29
PEÑARANDA DE DUERO;261;BURGOS;9;9261;465;RIO ARANDILLA;;;-3.479138;41.688537;460125.99;4615306.68;41.688537, -3.479138;0;0;0;0.26
PINEDA DE LA SIERRA;266;BURGOS;9;9266;94;CAMINO NATURAL VÍA VERDE DE LA SIERRA DE LA DEMANDA,SIERRA DE LA DEMANDA;;;-3.296928;42.216142;475492.5;4673817.35;42.216142, -3.296928;0;0;0;0.16
PINILLA DE LOS BARRUECOS;268;BURGOS;9;9268;98;;;;-3.304483;41.918199;474751.18;4640738.89;41.918199, -3.304483;0;0;0;0.21
PRÁDANOS DE BUREBA;273;BURGOS;9;9273;56;;;;-3.347719;42.503223;471430.74;4705709.53;42.503223, -3.347719;0;0;0;0.16
QUINTANA DEL PIDIO;281;BURGOS;9;9281;149;LA YECLA;;;-3.751338;41.759125;437541.69;4623305.47;41.759125, -3.751338;0;0;0;0.23
QUINTANAR DE LA SIERRA;289;BURGOS;9;9289;1513;ALTA SIERRA DE PINARES;;;-3.041477;41.979978;496563.86;4647554.05;41.979978, -3.041477;0;0;0;0.24
RABANERA DEL PINAR;302;BURGOS;9;9302;99;ALFOZ DE LARA;;;-3.196583;41.892791;483692.13;4637891.76;41.892791, -3.196583;0;0;0;0.23
REDECILLA DEL CAMPO;308;BURGOS;9;9308;67;LA RIOJILLA BURGALESA;QUINTANILLA DEL MONTE EN RIOJA,SOTILLO DE RIOJA;;-3.113821;42.466164;490642.75;4701542.22;42.466164, -3.113821;0;0;0;0.2
ROA;321;BURGOS;9;9321;2244;RIBERA DEL DUERO-COMARCA DE ROA,RUTA DEL VINO-AFLUENTE RURAL;;;-3.927859;41.697195;422793.3;4616572.93;41.697195, -3.927859;0;0;0;0.25
ROYUELA DE RÍO FRANCO;325;BURGOS;9;9325;170;BAJO ARLANZA;LA VEGUECILLA;;-3.958028;41.997829;420655.31;4649979.09;41.997829, -3.958028;0;0;0;0.18
MOZONCILLO;134;SEGOVIA;40;40134;907;RIO PIRON (MAMPI);;;-4.186215;41.148047;400460.07;4555869.92;41.148047, -4.186215;0;0;0;0.13
MUÑOPEDRO;135;SEGOVIA;40;40135;309;ZORITA MANZO;;;-4.472041;40.888026;375987.83;4527369.93;40.888026, -4.472041;0;0;0;0.15
MUÑOVEROS;136;SEGOVIA;40;40136;145;DOS VALLES,SALVA RIOS;;;-3.9518;41.172822;420161.09;4558378.85;41.172822, -3.9518;0;0;0;0.14
NAVA DE LA ASUNCIÓN;138;SEGOVIA;40;40138;2787;RIO ERESMA;MORALEJA DE COCA;;-4.488963;41.156639;375070.96;4557214.14;41.156639, -4.488963;0;0;0;0.17
NAVAFRÍA;139;SEGOVIA;40;40139;279;;;;-3.824568;41.057086;430712.1;4545421.7;41.057086, -3.824568;0;0;0;0.14
NAVAS DE ORO;145;SEGOVIA;40;40145;1274;;;;-4.437385;41.196063;379470.93;4561518.14;41.196063, -4.437385;0;0;0;0.17
NAVAS DE RIOFRÍO;904;SEGOVIA;40;40904;439;INTERPROVINCIAL CASTELLANA,LA MUJER MUERTA;;;-4.135274;40.868204;404330.91;4524746.8;40.868204, -4.135274;0;0;0;0.09
NAVAS DE SAN ANTONIO;146;SEGOVIA;40;40146;366;INTERPROVINCIAL CASTELLANA;;;-4.329414;40.761572;387790.79;4513139.9;40.761572, -4.329414;0;0;0;0.14
NIEVA;148;SEGOVIA;40;40148;256;RIBERAS DEL VOLTOYA;;;-4.426523;41.08017;380171.0;4548637.08;41.08017, -4.426523;0;0;0;0.15
PELAYOS DEL ARROYO;157;SEGOVIA;40;40157;48;DOS VALLES,RIO VIEJO;;;-3.939669;41.051143;421033.06;4544859.71;41.051143, -3.939669;0;0;0;0.12
PEROSILLO;158;SEGOVIA;40;40158;20;COMARCA DE LA CHURRERIA,PINARES;;;-4.14184;41.39282;404541.11;4582994.32;41.39282, -4.14184;0;0;0;0.2
PRÁDENA;162;SEGOVIA;40;40162;468;LA SIERRA;;;-3.688457;41.138917;442221.22;4554406.75;41.138917, -3.688457;0;0;0;0.18
REAL SITIO DE SAN ILDEFONSO;181;SEGOVIA;40;40181;5205;;;;-4.004759;40.897628;415366.96;4527878.73;40.897628, -4.004759;0;0;0;0.1
REBOLLO;165;SEGOVIA;40;40165;74;;;;-3.856802;41.192359;428151.14;4560464.89;41.192359, -3.856802;0;0;0;0.16
REMONDO;166;SEGOVIA;40;40166;316;CEGA,RIO ERESMA;;;-4.483361;41.341706;375891.82;4577752.16;41.341706, -4.483361;0;0;0;0.21
SAN CRISTÓBAL DE CUÉLLAR;177;SEGOVIA;40;40177;154;CEGA,LAS LOMAS;;;-4.404302;41.406858;382623.83;4584875.2;41.406858, -4.404302;0;0;0;0.21
SAN CRISTÓBAL DE LA VEGA;178;SEGOVIA;40;40178;83;RIBERAS DEL VOLTOYA;;;-4.646903;41.112964;361727.04;4552604.16;41.112964, -4.646903;0;0;0;0.19
SAN CRISTÓBAL DE SEGOVIA;906;SEGOVIA;40;40906;3153;LA ATALAYA;;;-4.075792;40.952063;409457.98;4533992.75;40.952063, -4.075792;0;0;0;0.08
SAN MIGUEL DE BERNUY;183;SEGOVIA;40;40183;134;;;;-3.9527;41.399064;420361.24;4583496.33;41.399064, -3.9527;0;0;0;0.2
SANCHONUÑO;179;SEGOVIA;40;40179;1027;DEL MALUCAS (MANDEM),LAS LOMAS;;;-4.305896;41.322465;390707.91;4575377.18;41.322465, -4.305896;0;0;0;0.18
SANTA MARÍA LA REAL DE NIEVA;185;SEGOVIA;40;40185;885;RIBERAS DEL VOLTOYA;JEMENUÑO,PARADINAS,TABLADILLO,VILLOSLADA;;-4.406482;41.070372;381837.0;4547522.06;41.070372, -4.406482;0;0;0;0.14
SANTA MARTA DEL CERRO;186;SEGOVIA;40;40186;49;LA SIERRA;;;-3.685323;41.217864;442553.32;4563168.89;41.217864, -3.685323;0;0;0;0.19
SAUQUILLO DE CABEZAS;192;SEGOVIA;40;40192;137;DOS VALLES;;;-4.068635;41.195146;410391.1;4560970.92;41.195146, -4.068635;0;0;0;0.14
SOTILLO;198;SEGOVIA;40;40198;30;LA SIERRA;;;-3.638952;41.25717;446472.42;4567502.87;41.25717, -3.638952;0;0;0;0.2
TOLOCIRIO;201;SEGOVIA;40;40201;36;RIBERAS DEL VOLTOYA,RIO ERESMA;;;-4.651533;41.133732;361382.03;4554917.17;41.133732, -4.651533;0;0;0;0.19
TORRECILLA DEL PINAR;204;SEGOVIA;40;40204;179;;;;-4.038407;41.374677;413164.15;4580871.32;41.374677, -4.038407;0;0;0;0.19
TRESCASAS;207;SEGOVIA;40;40207;1105;LA ATALAYA;;;-4.035857;40.964193;412835.0;4535298.73;40.964193, -4.035857;0;0;0;0.09
VALDEPRADOS;211;SEGOVIA;40;40211;60;INTERPROVINCIAL CASTELLANA;;;-4.256655;40.817923;394021.84;4519304.86;40.817923, -4.256655;0;0;0;0.11
VALLELADO;219;SEGOVIA;40;40219;728;CEGA,RIO ERESMA;;;-4.4266;41.406223;380758.84;4584835.2;41.406223, -4.4266;0;0;0;0.21
VALLERUELA DE SEPÚLVEDA;221;SEGOVIA;40;40221;52;;;;-3.773005;41.190357;435176.22;4560176.88;41.190357, -3.773005;0;0;0;0.17
VEGANZONES;222;SEGOVIA;40;40222;197;DOS VALLES,SALVA RIOS;;;-3.993384;41.192667;416698.1;4560620.9;41.192667, -3.993384;0;0;0;0.15
VEGAS DE MATUTE;223;SEGOVIA;40;40223;339;INTERPROVINCIAL CASTELLANA,MANCOMUNIDAD INTERMUNICIPAL LOS ANGELES DE SAN RAFAEL (MILASR);;;-4.27864;40.79699;392133.83;4517007.87;40.79699, -4.27864;0;0;0;0.12
VILLACASTÍN;225;SEGOVIA;40;40225;1525;INTERPROVINCIAL CASTELLANA;;;-4.412105;40.781561;380846.77;4515467.91;40.781561, -4.412105;0;0;0;0.15
VILLAVERDE DE ÍSCAR;228;SEGOVIA;40;40228;593;ALVISAN,RIO ERESMA;;;-4.526716;41.308235;372198.87;4574099.15;41.308235, -4.526716;0;0;0;0.2
ADRADAS;3;SORIA;42;42003;58;;SAUQUILLO DEL CAMPO;;-2.47378;41.351067;544020.34;4577863.54;41.351067, -2.47378;0;0;0;0.18
ALCONABA;6;SORIA;42;42006;199;;CUBO DE HOGUERAS,MARTIALAY,ONTALVILLA DE VALCORBA;;-2.385694;41.724146;551094.6;4619331.52;41.724146, -2.385694;0;0;0;0.65
ALCUBILLA DE LAS PEÑAS;8;SORIA;42;42008;59;CORPES;;;-2.527417;41.251954;539593.26;4566834.58;41.251954, -2.527417;0;0;0;0.21
ALDEALAFUENTE;9;SORIA;42;42009;83;CAMPO DE GÓMARA;RIBARROYA,TAPIELA;;-2.325381;41.671909;556156.6;4613569.47;41.671909, -2.325381;0;0;0;0.11
ALDEALICES;10;SORIA;42;42010;20;TIERRAS ALTAS;;;-2.309772;41.899827;557252.78;4638884.51;41.899827, -2.309772;0;0;0;0.68
ALDEALSEÑOR;12;SORIA;42;42012;28;;;;-2.315456;41.879001;556799.74;4636568.51;41.879001, -2.315456;0;0;0;0.68
ALENTISQUE;15;SORIA;42;42015;24;;CABANILLAS;;-2.331964;41.420553;555824.42;4585659.46;41.420553, -2.331964;0;0;0;0.17
ALIUD;16;SORIA;42;42016;21;CAMPO DE GÓMARA;;;-2.252388;41.654289;562249.61;4611663.41;41.654289, -2.252388;0;0;0;0.12
ALMAZÁN;20;SORIA;42;42020;5476;;;;-2.53291;41.486994;538992.45;4592925.64;41.486994, -2.53291;0;0;0;0.15
ALMAZUL;21;SORIA;42;42021;60;CAMPO DE GÓMARA;ZÁRABES;;-2.146226;41.573926;571177.59;4602823.35;41.573926, -2.146226;0;0;0;0.15
ARENILLAS;26;SORIA;42;42026;42;TURISMO DUERO-JALON;;;-2.846192;41.346988;512867.42;4577288.57;41.346988, -2.846192;0;0;0;0.21
AUSEJO DE LA SIERRA;28;SORIA;42;42028;115;;CUÉLLAR DE LA SIERRA,FUENTELFRESNO;;-2.374655;41.8962;551873.75;4638440.56;41.8962, -2.374655;0;0;0;0.67
BARAONA;29;SORIA;42;42029;122;CORPES,TURISMO DUERO-JALON;;;-2.657745;41.295301;528655.38;4571595.63;41.295301, -2.657745;0;0;0;0.2
BUBEROS;41;SORIA;42;42041;28;CAMPO DE GÓMARA;;;-2.19417;41.64614;567105.63;4610802.37;41.64614, -2.19417;0;0;0;0.14
CABREJAS DEL PINAR;45;SORIA;42;42045;299;PINARES DE SORIA;;;-2.85071;41.794733;512403.48;4626996.82;41.794733, -2.85071;0;0;0;0.71
CALTOJAR;48;SORIA;42;42048;51;TURISMO DUERO-JALON;;;-2.764159;41.402724;519713.41;4583491.65;41.402724, -2.764159;0;0;0;0.19
CAÑAMAQUE;50;SORIA;42;42050;27;LAS VICARIAS;;;-2.238908;41.444313;563577.48;4588361.38;41.444313, -2.238908;0;0;0;0.17
CARABANTES;51;SORIA;42;42051;22;;;;-1.998025;41.552508;583560.57;4600578.28;41.552508, -1.998025;0;0;0;0.18
CARRASCOSA DE ABAJO;53;SORIA;42;42053;18;;;;-3.090274;41.42371;492456.6;4585798.56;41.42371, -3.090274;0;0;0;0.23
CASAREJOS;55;SORIA;42;42055;146;EL CARAMACHO,PINARES DE SORIA;;;-3.032044;41.797715;497337.78;4627317.61;41.797715, -3.032044;0;0;0;0.19
CIDONES;61;SORIA;42;42061;314;;;;-2.640337;41.815;529872.59;4629298.74;41.815, -2.640337;0;0;0;0.67
CIGUDOSA;62;SORIA;42;42062;15;;;;-2.055893;41.936422;578266.84;4643148.29;41.936422, -2.055893;0;0;0;0.73
CIRUJALES DEL RÍO;65;SORIA;42;42065;20;;;;-2.325851;41.866921;555947.73;4635220.51;41.866921, -2.325851;0;0;0;0.67
DEZA;76;SORIA;42;42076;165;;;;-2.022114;41.46339;581663.5;4590661.27;41.46339, -2.022114;0;0;0;0.19
DURUELO DE LA SIERRA;78;SORIA;42;42078;1026;TURISMO DE MONTAÑA DE SORIA-URBIÓN;;;-2.931237;41.955862;505698.71;4644877.99;41.955862, -2.931237;0;0;0;0.74
ESPEJÓN;81;SORIA;42;42081;128;;;;-3.259149;41.830906;478481.17;4631034.59;41.830906, -3.259149;0;0;0;0.23
ESTEPA DE SAN JUAN;82;SORIA;42;42082;13;TIERRAS ALTAS;;;-2.33454;41.927129;555174.81;4641899.55;41.927129, -2.33454;0;0;0;0.68
FRESNO DE CARACENA;84;SORIA;42;42084;19;;;;-3.092589;41.452352;492266.6;4588978.56;41.452352, -3.092589;0;0;0;0.23
FUENTECANTOS;87;SORIA;42;42087;65;;;;-2.428785;41.848701;547418.69;4633135.57;41.848701, -2.428785;0;0;0;0.66
GARRAY;94;SORIA;42;42094;785;;;;-2.446431;41.815345;545977.64;4629422.57;41.815345, -2.446431;0;0;0;0.65
GORMAZ;97;SORIA;42;42097;26;TURISTICA TIERRAS DEL SUROESTE SORIANO;;;-3.007829;41.493797;499346.49;4593575.55;41.493797, -3.007829;0;0;0;0.2
LA LOSILLA;106;SORIA;42;42106;13;;;;-2.277464;41.872968;559957.75;4635924.48;41.872968, -2.277464;0;0;0;0.68
LICERAS;105;SORIA;42;42105;49;MIO CID;;;-3.243685;41.380244;479623.98;4580997.82;41.380244, -3.243685;0;0;0;0.26
MAJÁN;108;SORIA;42;42108;9;LAS VICARIAS;;;-2.303553;41.468809;558155.48;4591035.45;41.468809, -2.303553;0;0;0;0.16
MATALEBRERAS;110;SORIA;42;42110;81;;;;-2.046727;41.842371;579142.75;4632714.29;41.842371, -2.046727;0;0;0;0.72
MIÑO DE SAN ESTEBAN;116;SORIA;42;42116;40;MIO CID;;;-3.345996;41.535919;471138.14;4598309.73;41.535919, -3.345996;0;0;0;0.26
MOLINOS DE DUERO;117;SORIA;42;42117;158;;;;-2.787761;41.885487;517608.6;4637083.86;41.885487, -2.787761;0;0;0;0.7
MURIEL DE LA FUENTE;124;SORIA;42;42124;55;PINARES DE SORIA;;;-2.859445;41.724714;511690.45;4619221.81;41.724714, -2.859445;0;0;0;0.71
MURIEL VIEJO;125;SORIA;42;42125;75;PINARES DE SORIA;;;-2.915383;41.782828;507031.52;4625667.76;41.782828, -2.915383;0;0;0;0.72
NOVIERCAS;132;SORIA;42;42132;172;;;;-2.036936;41.712041;580117.66;4618253.28;41.712041, -2.036936;0;0;0;0.72
PINILLA DEL CAMPO;139;SORIA;42;42139;18;;;;-2.084951;41.716784;576117.67;4618736.29;41.716784, -2.084951;0;0;0;0.71
PORTILLO DE SORIA;140;SORIA;42;42140;12;;;;-2.119072;41.635429;573371.63;4609674.33;41.635429, -2.119072;0;0;0;0.15
QUINTANAS DE GORMAZ;145;SORIA;42;42145;127;;;;-2.975813;41.508125;502018.46;4595166.58;41.508125, -2.975813;0;0;0;0.2
QUIÑONERÍA;148;SORIA;42;42148;10;;;;-2.037681;41.56851;580233.59;4602317.3;41.56851, -2.037681;0;0;0;0.17
RELLO;153;SORIA;42;42153;20;TURISMO DUERO-JALON;;;-2.748983;41.332711;521004.42;4575722.62;41.332711, -2.748983;0;0;0;0.2
ROLLAMIENTA;159;SORIA;42;42159;44;SIERRA CEBOLLERA;;;-2.531415;41.926391;538851.81;4641709.69;41.926391, -2.531415;0;0;0;0.68
SANTA CRUZ DE YANGUAS;166;SORIA;42;42166;56;SIERRA CEBOLLERA,TIERRAS ALTAS;;;-2.447556;42.062901;545707.06;4656907.68;42.062901, -2.447556;0;0;0;0.71
SERÓN DE NÁGIMA;171;SORIA;42;42171;122;LAS VICARIAS,TURISMO DUERO-JALON;;;-2.20128;41.496192;566667.52;4594149.37;41.496192, -2.20128;0;0;0;0.16
SOLIEDRA;172;SORIA;42;42172;33;;BORCHICAYADA;;-2.381439;41.469074;551651.46;4591015.53;41.469074, -2.381439;0;0;0;0.15
SUELLACABRAS;175;SORIA;42;42175;33;;;;-2.223243;41.852456;564477.75;4633686.42;41.852456, -2.223243;0;0;0;0.69
TEJADO;183;SORIA;42;42183;96;CAMPO DE GÓMARA;;;-2.266792;41.588332;561112.58;4604330.43;41.588332, -2.266792;0;0;0;0.13
TORLENGUA;184;SORIA;42;42184;45;LAS VICARIAS;;;-2.163851;41.455366;569835.5;4589646.34;41.455366, -2.163851;0;0;0;0.18
UCERO;189;SORIA;42;42189;91;;;;-3.051046;41.717229;495753.81;4618382.51;41.717229, -3.051046;0;0;0;0.19
VADILLO;190;SORIA;42;42190;83;PINARES DE SORIA;;;-3.008573;41.791865;499287.7;4626667.64;41.791865, -3.008573;0;0;0;0.18
VALDEAVELLANO DE TERA;191;SORIA;42;42191;218;SIERRA CEBOLLERA;;;-2.573951;41.939391;535317.83;4643134.73;41.939391, -2.573951;0;0;0;0.68
VALDELAGUA DEL CERRO;193;SORIA;42;42193;13;;;;-2.115362;41.888386;573391.81;4637762.33;41.888386, -2.115362;0;0;0;0.71
VALDEPRADO;196;SORIA;42;42196;8;TIERRAS ALTAS;;;-2.108559;41.938105;573898.87;4643288.33;41.938105, -2.108559;0;0;0;0.72
VELILLA DE LA SIERRA;201;SORIA;42;42201;27;;;;-2.403404;41.809752;549555.64;4628825.54;41.809752, -2.403404;0;0;0;0.65
VELILLA DE LOS AJOS;202;SORIA;42;42202;15;;;;-2.254201;41.490738;562255.51;4593504.41;41.490738, -2.254201;0;0;0;0.16
VIANA DE DUERO;204;SORIA;42;42204;49;;LA MILANA,MOÑUX,PERDICES;;-2.461149;41.534014;544950.51;4598180.59;41.534014, -2.461149;0;0;0;0.13
VILLAR DEL CAMPO;208;SORIA;42;42208;30;;;;-2.149486;41.787516;570671.71;4626534.35;41.787516, -2.149486;0;0;0;0.7
VILLAR DEL RÍO;209;SORIA;42;42209;156;SIERRA CEBOLLERA,TIERRAS ALTAS;;;-2.35078;42.07584;553703.1;4658400.62;42.07584, -2.35078;0;0;0;0.72
AGUASAL;2;VALLADOLID;47;47002;19;LAS MURALLAS;;;-4.652536;41.274531;361594.97;4570550.16;41.274531, -4.652536;0;0;0;0.18
ALCAZARÉN;5;VALLADOLID;47;47005;614;ALVISAN,TIERRAS DEL ADAJA;;;-4.673091;41.371087;360080.09;4581303.05;41.371087, -4.673091;0;0;0;0.15
ALDEAMAYOR DE SAN MARTÍN;7;VALLADOLID;47;47007;6163;TIERRA DE PINARES,VALLADOLID Y ALFOZ;;;-4.639667;41.511747;363171.32;4596866.18;41.511747, -4.639667;0;0;0;0.11
AMUSQUILLO;9;VALLADOLID;47;47009;99;VALLE DEL ESGUEVA;;;-4.302519;41.748584;391703.82;4622682.16;41.748584, -4.302519;0;0;0;0.16
BERCERO;17;VALLADOLID;47;47017;177;BAJO DUERO,VEGA DEL DUERO;;;-5.056071;41.563536;328557.96;4603359.31;41.563536, -5.056071;0;0;0;0.14
BOCIGAS;21;VALLADOLID;47;47021;75;LAS MURALLAS,RIO ERESMA;;;-4.680937;41.229299;359119.0;4565574.19;41.229299, -4.680937;0;0;0;0.19
BOLAÑOS DE CAMPOS;24;VALLADOLID;47;47024;254;ZONA NORTE DE VALLADOLID;;;-5.285321;42.006472;310748.99;4653021.32;42.006472, -5.285321;0;0;0;0.22
BRAHOJOS DE MEDINA;25;VALLADOLID;47;47025;101;TIERRAS DE MEDINA;;;-5.041654;41.222945;328868.86;4565516.28;41.222945, -5.041654;0;0;0;0.21
BUSTILLO DE CHAVES;26;VALLADOLID;47;47026;65;ZONA NORTE DE VALLADOLID;GORDALIZA DE LA LOMA;;-5.09042;42.132833;327233.03;4666639.51;42.132833, -5.09042;0;0;0;0.22
CABREROS DEL MONTE;29;VALLADOLID;47;47029;56;CAMPOS GÓTICOS;;;-5.26801;41.84768;311716.02;4635351.43;41.84768, -5.26801;0;0;0;0.2
CASTRODEZA;41;VALLADOLID;47;47041;142;TOROZOS;;;-4.958644;41.648;336895.11;4612548.34;41.648, -4.958644;0;0;0;0.12
CASTRONUEVO DE ESGUEVA;44;VALLADOLID;47;47044;393;VALLADOLID Y ALFOZ,VALLE DEL ESGUEVA;;;-4.587702;41.681536;367854.71;4615636.22;41.681536, -4.587702;0;0;0;0.1
CASTRONUÑO;45;VALLADOLID;47;47045;767;BAJO DUERO;;;-5.262498;41.390485;310841.6;4584576.18;41.390485, -5.262498;0;0;0;0.2
CASTROPONCE;46;VALLADOLID;47;47046;128;ZONA NORTE DE VALLADOLID;;;-5.182156;42.126486;319632.93;4666124.43;42.126486, -5.182156;0;0;0;0.23
CERVILLEGO DE LA CRUZ;49;VALLADOLID;47;47049;91;TIERRAS DE MEDINA;;;-4.94959;41.186774;336496.0;4561323.26;41.186774, -4.94959;0;0;0;0.21
CIGUÑUELA;51;VALLADOLID;47;47051;358;TOROZOS,VALLADOLID Y ALFOZ,VEGA DEL DUERO;;;-4.856846;41.6399;345353.26;4611461.3;41.6399, -4.856846;0;0;0;0.1
CISTÉRNIGA;52;VALLADOLID;47;47052;9281;PINODUERO,TIERRAS DE VALLADOLID,VALLADOLID Y ALFOZ;;;-4.685702;41.612284;359547.49;4608102.27;41.612284, -4.685702;0;0;0;0.08
COGECES DEL MONTE;54;VALLADOLID;47;47054;644;COMARCA DE LA CHURRERIA,MINGUELA;;;-4.315047;41.511208;390260.27;4596343.28;41.511208, -4.315047;0;0;0;0.16
CUENCA DE CAMPOS;58;VALLADOLID;47;47058;192;ZONA NORTE DE VALLADOLID;;;-5.055907;42.057474;329884.17;4658202.48;42.057474, -5.055907;0;0;0;0.2
CURIEL DE DUERO;59;VALLADOLID;47;47059;119;CAMPO DE PEÑAFIEL;;;-4.099193;41.639944;408455.43;4610384.38;41.639944, -4.099193;0;0;0;0.2
ENCINAS DE ESGUEVA;60;VALLADOLID;47;47060;218;VALLE DEL ESGUEVA;;;-4.104413;41.756514;408186.6;4623332.13;41.756514, -4.104413;0;0;0;0.2
FOMBELLIDA;62;VALLADOLID;47;47062;175;VALLE DEL ESGUEVA;;;-4.184191;41.763961;401565.72;4624247.17;41.763961, -4.184191;0;0;0;0.19
FONTIHOYUELO;64;VALLADOLID;47;47064;31;ZONA NORTE DE VALLADOLID;;;-5.058201;42.160146;329969.03;4669607.56;42.160146, -5.058201;0;0;0;0.23
FUENTE EL SOL;67;VALLADOLID;47;47067;153;MEDINA DEL CAMPO Y ALFOZ,TIERRAS DE MEDINA;;;-4.935783;41.175459;337626.03;4560041.26;41.175459, -4.935783;0;0;0;0.21
FUENTE-OLMEDO;68;VALLADOLID;47;47068;42;LAS MURALLAS,RIO ERESMA;;;-4.647202;41.24473;361978.98;4567233.17;41.24473, -4.647202;0;0;0;0.18
GALLEGOS DE HORNIJA;69;VALLADOLID;47;47069;109;SERMAN (SERVICIOS MANCOMUNADOS);;;-5.097806;41.609545;325201.95;4608551.39;41.609545, -5.097806;0;0;0;0.15
GERIA;71;VALLADOLID;47;47071;488;TOROZOS,VALLADOLID Y ALFOZ;;;-4.875663;41.579096;343639.19;4604744.27;41.579096, -4.875663;0;0;0;0.11
HERRÍN DE CAMPOS;73;VALLADOLID;47;47073;112;ZONA NORTE DE VALLADOLID;;;-4.953451;42.123631;338530.2;4665349.58;42.123631, -4.953451;0;0;0;0.21
LA MUDARRA;99;VALLADOLID;47;47099;169;CAMPOS GÓTICOS;;;-4.944105;41.779301;338435.18;4627099.34;41.779301, -4.944105;0;0;0;0.13
LA PARRILLA;110;VALLADOLID;47;47110;480;COMARCA DE LA CHURRERIA,PINODUERO;;;-4.535154;41.536734;371942.35;4599480.18;41.536734, -4.535154;0;0;0;0.12
LA SECA;158;VALLADOLID;47;47158;1013;TIERRAS DE MEDINA,VEGA DEL DUERO;;;-4.90753;41.413979;340578.04;4586470.14;41.413979, -4.90753;0;0;0;0.15
LA UNIÓN DE CAMPOS;176;VALLADOLID;47;47176;202;ZONA NORTE DE VALLADOLID;;;-5.324877;42.075949;307682.86;4660824.28;42.075949, -5.324877;0;0;0;0.24
LANGAYO;77;VALLADOLID;47;47077;250;CAMPO DE PEÑAFIEL,COMARCA DE LA CHURRERIA;;;-4.199649;41.570288;399981.41;4602762.39;41.570288, -4.199649;0;0;0;0.18
MATILLA DE LOS CAÑOS;83;VALLADOLID;47;47083;113;TOROZOS,VEGA DEL DUERO;;;-4.966393;41.546542;335993.05;4601298.26;41.546542, -4.966393;0;0;0;0.13
MELGAR DE ARRIBA;89;VALLADOLID;47;47089;162;ZONA NORTE DE VALLADOLID;;;-5.091984;42.270503;327478.85;4681929.59;42.270503, -5.091984;0;0;0;0.26
MONASTERIO DE VEGA;91;VALLADOLID;47;47091;79;ZONA NORTE DE VALLADOLID;;;-5.180445;42.230913;320070.79;4677716.51;42.230913, -5.180445;0;0;0;0.26
MORALES DE CAMPOS;96;VALLADOLID;47;47096;130;CAMPOS GÓTICOS;;;-5.174475;41.859982;319516.05;4636516.4;41.859982, -5.174475;0;0;0;0.18
MOTA DEL MARQUÉS;97;VALLADOLID;47;47097;330;SERMAN (SERVICIOS MANCOMUNADOS);;;-5.178853;41.632507;318512.86;4611268.39;41.632507, -5.178853;0;0;0;0.17
MURIEL;100;VALLADOLID;47;47100;111;TIERRAS DE MEDINA;;;-4.842506;41.12209;345325.06;4553946.24;41.12209, -4.842506;0;0;0;0.22
NAVA DEL REY;101;VALLADOLID;47;47101;1925;MEDINA DEL CAMPO Y ALFOZ,TIERRAS DE MEDINA,VEGA DEL DUERO;;;-5.081659;41.330492;325801.77;4577536.19;41.330492, -5.081659;0;0;0;0.19
PALAZUELO DE VEDIJA;109;VALLADOLID;47;47109;164;CAMPOS GÓTICOS;;;-5.145165;41.928088;322138.09;4644017.37;41.928088, -5.145165;0;0;0;0.19
PEDRAJAS DE SAN ESTEBAN;112;VALLADOLID;47;47112;3406;ALVISAN,RIO ERESMA;;;-4.583985;41.341869;367472.95;4577919.11;41.341869, -4.583985;0;0;0;0.16
PEÑAFIEL;114;VALLADOLID;47;47114;5188;CAMPO DE PEÑAFIEL,COMARCA DE LA CHURRERIA;;;-4.118685;41.596451;406769.4;4605576.45;41.596451, -4.118685;0;0;0;0.2
PIÑEL DE ARRIBA;119;VALLADOLID;47;47119;88;CAMPO DE PEÑAFIEL;;;-4.12805;41.699443;406138.54;4617021.26;41.699443, -4.12805;0;0;0;0.19
POZAL DE GALLINAS;123;VALLADOLID;47;47123;538;MEDINA DEL CAMPO Y ALFOZ,TIERRAS DE MEDINA,TIERRAS DEL ADAJA;;;-4.839642;41.317655;346025.06;4575653.14;41.317655, -4.839642;0;0;0;0.17
POZUELO DE LA ORDEN;125;VALLADOLID;47;47125;50;TIERRA DE CAMPOS;;;-5.259261;41.822915;312370.0;4632582.45;41.822915, -5.259261;0;0;0;0.19
PURAS;126;VALLADOLID;47;47126;45;LAS MURALLAS,RIO ERESMA;;;-4.648377;41.182769;361750.01;4560356.18;41.182769, -4.648377;0;0;0;0.2
QUINTANILLA DE ARRIBA;127;VALLADOLID;47;47127;155;CAMPO DE PEÑAFIEL;;;-4.21663;41.620044;398643.53;4608306.33;41.620044, -4.21663;0;0;0;0.17
QUINTANILLA DE ONÉSIMO;129;VALLADOLID;47;47129;992;PINODUERO;;;-4.365341;41.625983;386264.69;4609151.21;41.625983, -4.365341;0;0;0;0.14
RÁBANO;131;VALLADOLID;47;47131;176;CAMPO DE PEÑAFIEL;;;-4.062706;41.531707;411346.3;4598329.52;41.531707, -4.062706;0;0;0;0.21
RENEDO DE ESGUEVA;133;VALLADOLID;47;47133;3972;TIERRAS DE VALLADOLID,VALLADOLID Y ALFOZ,VALLE DEL ESGUEVA;;;-4.627667;41.654993;364472.62;4612751.24;41.654993, -4.627667;0;0;0;0.09
RUBÍ DE BRACAMONTE;138;VALLADOLID;47;47138;214;MEDINA DEL CAMPO Y ALFOZ,TIERRAS DE MEDINA;;;-4.924443;41.214452;338673.03;4564349.24;41.214452, -4.924443;0;0;0;0.2
SAN CEBRIÁN DE MAZOTE;142;VALLADOLID;47;47142;103;SERMAN (SERVICIOS MANCOMUNADOS);;;-5.147121;41.680875;321289.94;4616572.43;41.680875, -5.147121;0;0;0;0.16
SAN PABLO DE LA MORALEJA;147;VALLADOLID;47;47147;107;TIERRAS DE MEDINA;;;-4.773803;41.160216;351179.06;4558059.21;41.160216, -4.773803;0;0;0;0.21
SAN PELAYO;149;VALLADOLID;47;47149;48;SERMAN (SERVICIOS MANCOMUNADOS);;;-5.034048;41.681384;330703.06;4616400.39;41.681384, -5.034048;0;0;0;0.14
SAN SALVADOR;151;VALLADOLID;47;47151;23;SERMAN (SERVICIOS MANCOMUNADOS);;;-5.088766;41.620959;325985.97;4609800.4;41.620959, -5.088766;0;0;0;0.15
SAN VICENTE DEL PALACIO;156;VALLADOLID;47;47156;160;TIERRAS DE MEDINA;;;-4.852086;41.218675;344749.06;4564686.21;41.218675, -4.852086;0;0;0;0.19
